[
  {
    "started_at": "2024-06-02 00:04:03.217000+00:00",
    "ended_at": "2024-06-02 00:10:48.859000+00:00",
    "duration": 405,
    "start_station_id": "393",
    "start_station_name": "Hans Nielsen Hauges plass",
    "start_station_description": "langs Hans Nielsen Hauges gate",
    "start_station_latitude": 59.939244,
    "start_station_longitude": 10.774319,
    "end_station_id": "493",
    "end_station_name": "Sofienbergparken nordvest",
    "end_station_description": "langs Helgesens Gate",
    "end_station_latitude": 59.9243639,
    "end_station_longitude": 10.7615858
  },
  {
    "started_at": "2024-06-02 03:00:13.807000+00:00",
    "ended_at": "2024-06-02 03:05:54.161000+00:00",
    "duration": 340,
    "start_station_id": "501",
    "start_station_name": "Krebs' gate",
    "start_station_description": "ved Vogts gate",
    "start_station_latitude": 59.935995,
    "start_station_longitude": 10.765413,
    "end_station_id": "440",
    "end_station_name": "Lakkegata",
    "end_station_description": "ved Sundtkvartalet",
    "end_station_latitude": 59.9172088,
    "end_station_longitude": 10.7622135
  },
  {
    "started_at": "2024-06-02 03:00:53.500000+00:00",
    "ended_at": "2024-06-02 03:04:51.085000+00:00",
    "duration": 237,
    "start_station_id": "476",
    "start_station_name": "Edvard Storms gate",
    "start_station_description": "ved Pilestredet",
    "start_station_latitude": 59.919111,
    "start_station_longitude": 10.736179,
    "end_station_id": "535",
    "end_station_name": "Uranienborgveien",
    "end_station_description": "vest for Slottsparken",
    "end_station_latitude": 59.9200421,
    "end_station_longitude": 10.726634
  },
  {
    "started_at": "2024-06-02 03:01:47.779000+00:00",
    "ended_at": "2024-06-02 03:56:00.697000+00:00",
    "duration": 3252,
    "start_station_id": "589",
    "start_station_name": "Huk 1",
    "start_station_description": "stativ nærmest busstopp (markert 1)",
    "start_station_latitude": 59.89853221724158,
    "start_station_longitude": 10.674403950323182,
    "end_station_id": "517",
    "end_station_name": "Tåsenløkka",
    "end_station_description": "langs Uelands gate",
    "end_station_latitude": 59.9433939,
    "end_station_longitude": 10.7482848
  },
  {
    "started_at": "2024-06-02 03:04:07.899000+00:00",
    "ended_at": "2024-06-02 03:55:04.320000+00:00",
    "duration": 3056,
    "start_station_id": "589",
    "start_station_name": "Huk 1",
    "start_station_description": "stativ nærmest busstopp (markert 1)",
    "start_station_latitude": 59.89853221724158,
    "start_station_longitude": 10.674403950323182,
    "end_station_id": "421",
    "end_station_name": "Alexander Kiellands Plass",
    "end_station_description": "langs Maridalsveien",
    "end_station_latitude": 59.92806670615684,
    "end_station_longitude": 10.751202636819613
  },
  {
    "started_at": "2024-06-02 03:11:33.515000+00:00",
    "ended_at": "2024-06-02 03:13:16.961000+00:00",
    "duration": 103,
    "start_station_id": "457",
    "start_station_name": "Trondheimsveien",
    "start_station_description": "ved trikkestoppet",
    "start_station_latitude": 59.9230577,
    "start_station_longitude": 10.7717192,
    "end_station_id": "598",
    "end_station_name": "Sofienbergparken nord",
    "end_station_description": "langs Helgesens gate",
    "end_station_latitude": 59.923229,
    "end_station_longitude": 10.766171
  },
  {
    "started_at": "2024-06-02 03:17:11.965000+00:00",
    "ended_at": "2024-06-02 03:29:00.864000+00:00",
    "duration": 708,
    "start_station_id": "2347",
    "start_station_name": "Huk 2",
    "start_station_description": "stativ nærmest stranden (markert 2)",
    "start_station_latitude": 59.89843428245928,
    "start_station_longitude": 10.674398461025874,
    "end_station_id": "572",
    "end_station_name": "Skøyen",
    "end_station_description": "under broen",
    "end_station_latitude": 59.92226850808104,
    "end_station_longitude": 10.679579749668129
  },
  {
    "started_at": "2024-06-02 03:29:03.294000+00:00",
    "ended_at": "2024-06-02 03:31:59.627000+00:00",
    "duration": 176,
    "start_station_id": "586",
    "start_station_name": "Københavngata busstopp",
    "start_station_description": "ved Fagerheim tennisklubb",
    "start_station_latitude": 59.9294565845173,
    "start_station_longitude": 10.769121495700826,
    "end_station_id": "744",
    "end_station_name": "Hallénparken",
    "end_station_description": "ved Vogts gate",
    "end_station_latitude": 59.9315302,
    "end_station_longitude": 10.762169
  },
  {
    "started_at": "2024-06-02 03:30:23.055000+00:00",
    "ended_at": "2024-06-02 03:36:36.057000+00:00",
    "duration": 373,
    "start_station_id": "437",
    "start_station_name": "Sentrum Scene",
    "start_station_description": "ved Arbeidersamfunnets plass",
    "start_station_latitude": 59.91546786564256,
    "start_station_longitude": 10.751140873016311,
    "end_station_id": "506",
    "end_station_name": "Botanisk Hage vest",
    "end_station_description": "ved Blytts gate",
    "end_station_latitude": 59.92012811804052,
    "end_station_longitude": 10.768875408563598
  },
  {
    "started_at": "2024-06-02 03:31:01.865000+00:00",
    "ended_at": "2024-06-02 03:46:10.238000+00:00",
    "duration": 908,
    "start_station_id": "503",
    "start_station_name": "Fagerheimgata",
    "start_station_description": "ved Dælenenga busstopp",
    "start_station_latitude": 59.927605868377185,
    "start_station_longitude": 10.76598469881135,
    "end_station_id": "2328",
    "end_station_name": "The Hub",
    "end_station_description": "Mellom Oslo City og The Hub hotel",
    "end_station_latitude": 59.912522370233745,
    "end_station_longitude": 10.750910185807754
  },
  {
    "started_at": "2024-06-02 03:43:57.036000+00:00",
    "ended_at": "2024-06-02 03:50:40.137000+00:00",
    "duration": 403,
    "start_station_id": "622",
    "start_station_name": "Pilestredet 63",
    "start_station_description": "ved trikkestoppet",
    "start_station_latitude": 59.9238826,
    "start_station_longitude": 10.7313627,
    "end_station_id": "396",
    "end_station_name": "Kirkeristen",
    "end_station_description": "ved Torggata",
    "end_station_latitude": 59.91300035973293,
    "end_station_longitude": 10.746760585982287
  },
  {
    "started_at": "2024-06-02 03:44:08.027000+00:00",
    "ended_at": "2024-06-02 03:51:43.961000+00:00",
    "duration": 455,
    "start_station_id": "449",
    "start_station_name": "Ruseløkkgården",
    "start_station_description": "langs Løkkeveien",
    "start_station_latitude": 59.91357497092093,
    "start_station_longitude": 10.726229742333288,
    "end_station_id": "2328",
    "end_station_name": "The Hub",
    "end_station_description": "Mellom Oslo City og The Hub hotel",
    "end_station_latitude": 59.912522370233745,
    "end_station_longitude": 10.750910185807754
  },
  {
    "started_at": "2024-06-02 03:46:16.231000+00:00",
    "ended_at": "2024-06-02 04:24:12.590000+00:00",
    "duration": 2276,
    "start_station_id": "589",
    "start_station_name": "Huk 1",
    "start_station_description": "stativ nærmest busstopp (markert 1)",
    "start_station_latitude": 59.89853221724158,
    "start_station_longitude": 10.674403950323182,
    "end_station_id": "483",
    "end_station_name": "Hausmanns gate",
    "end_station_description": "ved Røde Kors",
    "end_station_latitude": 59.915451,
    "end_station_longitude": 10.758328
  },
  {
    "started_at": "2024-06-02 03:48:01.550000+00:00",
    "ended_at": "2024-06-02 04:09:00.389000+00:00",
    "duration": 1258,
    "start_station_id": "589",
    "start_station_name": "Huk 1",
    "start_station_description": "stativ nærmest busstopp (markert 1)",
    "start_station_latitude": 59.89853221724158,
    "start_station_longitude": 10.674403950323182,
    "end_station_id": "479",
    "end_station_name": "Tjuvholmen",
    "end_station_description": "ved Bryggegangen",
    "end_station_latitude": 59.909467,
    "end_station_longitude": 10.722509
  },
  {
    "started_at": "2024-06-02 03:50:19.810000+00:00",
    "ended_at": "2024-06-02 04:19:24.844000+00:00",
    "duration": 1745,
    "start_station_id": "589",
    "start_station_name": "Huk 1",
    "start_station_description": "stativ nærmest busstopp (markert 1)",
    "start_station_latitude": 59.89853221724158,
    "start_station_longitude": 10.674403950323182,
    "end_station_id": "599",
    "end_station_name": "Paléhaven",
    "end_station_description": "langs Strandgata",
    "end_station_latitude": 59.910331,
    "end_station_longitude": 10.75011
  },
  {
    "started_at": "2024-06-02 03:53:28.478000+00:00",
    "ended_at": "2024-06-02 03:57:10.604000+00:00",
    "duration": 222,
    "start_station_id": "398",
    "start_station_name": "Ringnes Park",
    "start_station_description": "ved Sannergata",
    "start_station_latitude": 59.92843404417577,
    "start_station_longitude": 10.75943014633117,
    "end_station_id": "586",
    "end_station_name": "Københavngata busstopp",
    "end_station_description": "ved Fagerheim tennisklubb",
    "end_station_latitude": 59.9294565845173,
    "end_station_longitude": 10.769121495700826
  },
  {
    "started_at": "2024-06-02 03:53:45.127000+00:00",
    "ended_at": "2024-06-02 04:03:30.535000+00:00",
    "duration": 585,
    "start_station_id": "597",
    "start_station_name": "Fredensborg",
    "start_station_description": "ved rundkjøringen",
    "start_station_latitude": 59.920995,
    "start_station_longitude": 10.750358,
    "end_station_id": "583",
    "end_station_name": "Galgeberg",
    "end_station_description": "langs St. Halvards gate",
    "end_station_latitude": 59.90707579234818,
    "end_station_longitude": 10.779164402446728
  },
  {
    "started_at": "2024-06-02 03:56:07.916000+00:00",
    "ended_at": "2024-06-02 04:04:02.038000+00:00",
    "duration": 474,
    "start_station_id": "408",
    "start_station_name": "Tøyen skole",
    "start_station_description": "forsiden av skolebygget",
    "start_station_latitude": 59.914943,
    "start_station_longitude": 10.773977,
    "end_station_id": "609",
    "end_station_name": "Fred Olsens gate",
    "end_station_description": "ved Karl Johans gate",
    "end_station_latitude": 59.9110506,
    "end_station_longitude": 10.7493737
  },
  {
    "started_at": "2024-06-02 04:06:52.482000+00:00",
    "ended_at": "2024-06-02 04:29:35.509000+00:00",
    "duration": 1363,
    "start_station_id": "513",
    "start_station_name": "Bøkkerveien",
    "start_station_description": "ved HasleLinje",
    "start_station_latitude": 59.9273747,
    "start_station_longitude": 10.7960147,
    "end_station_id": "407",
    "end_station_name": "Sagene bussholdeplass",
    "end_station_description": "langs Kierschovs gate",
    "end_station_latitude": 59.937743,
    "end_station_longitude": 10.751648
  },
  {
    "started_at": "2024-06-02 04:07:59.635000+00:00",
    "ended_at": "2024-06-02 04:29:29.457000+00:00",
    "duration": 1289,
    "start_station_id": "513",
    "start_station_name": "Bøkkerveien",
    "start_station_description": "ved HasleLinje",
    "start_station_latitude": 59.9273747,
    "start_station_longitude": 10.7960147,
    "end_station_id": "407",
    "end_station_name": "Sagene bussholdeplass",
    "end_station_description": "langs Kierschovs gate",
    "end_station_latitude": 59.937743,
    "end_station_longitude": 10.751648
  },
  {
    "started_at": "2024-06-02 04:10:30.678000+00:00",
    "ended_at": "2024-06-02 04:19:11.224000+00:00",
    "duration": 520,
    "start_station_id": "402",
    "start_station_name": "Lørenveien",
    "start_station_description": "sør for Lørenparken",
    "start_station_latitude": 59.93087712510462,
    "start_station_longitude": 10.791823716034969,
    "end_station_id": "472",
    "end_station_name": "Arendalsgata",
    "end_station_description": "over veien fra Sagen Kirke",
    "end_station_latitude": 59.9378,
    "end_station_longitude": 10.7541
  },
  {
    "started_at": "2024-06-02 04:11:25.624000+00:00",
    "ended_at": "2024-06-02 04:20:40.902000+00:00",
    "duration": 555,
    "start_station_id": "382",
    "start_station_name": "Stensgata",
    "start_station_description": "ved trikkestoppet",
    "start_station_latitude": 59.92958561753996,
    "start_station_longitude": 10.732839000000013,
    "end_station_id": "396",
    "end_station_name": "Kirkeristen",
    "end_station_description": "ved Torggata",
    "end_station_latitude": 59.91300035973293,
    "end_station_longitude": 10.746760585982287
  },
  {
    "started_at": "2024-06-02 04:13:15.271000+00:00",
    "ended_at": "2024-06-02 04:18:28.727000+00:00",
    "duration": 313,
    "start_station_id": "570",
    "start_station_name": "Frøen T-bane",
    "start_station_description": "langs Slemdalsveien",
    "start_station_latitude": 59.9347352,
    "start_station_longitude": 10.7096985,
    "end_station_id": "561",
    "end_station_name": "Kirkeveien",
    "end_station_description": "ved Gørbitz' gate",
    "end_station_latitude": 59.93347989334691,
    "end_station_longitude": 10.726294394131088
  },
  {
    "started_at": "2024-06-02 04:15:45.885000+00:00",
    "ended_at": "2024-06-02 04:22:28.125000+00:00",
    "duration": 402,
    "start_station_id": "519",
    "start_station_name": "Thomas Heftyes plass",
    "start_station_description": "ved Bygdøy allé",
    "start_station_latitude": 59.918578143336774,
    "start_station_longitude": 10.703899530059402,
    "end_station_id": "615",
    "end_station_name": "Munkedamsveien",
    "end_station_description": "ved Haakon VIIs gate",
    "end_station_latitude": 59.9135227,
    "end_station_longitude": 10.7301061
  },
  {
    "started_at": "2024-06-02 04:30:49.887000+00:00",
    "ended_at": "2024-06-02 04:39:31.600000+00:00",
    "duration": 521,
    "start_station_id": "2305",
    "start_station_name": "Hesselbergs Gate",
    "start_station_description": "ved Toftes Gate",
    "start_station_latitude": 59.927777943193746,
    "start_station_longitude": 10.761256419316368,
    "end_station_id": "526",
    "end_station_name": "Lille Grensen",
    "end_station_description": "Ved Akersgata",
    "end_station_latitude": 59.9138973,
    "end_station_longitude": 10.7423101
  },
  {
    "started_at": "2024-06-02 04:32:02.667000+00:00",
    "ended_at": "2024-06-02 04:33:25.766000+00:00",
    "duration": 83,
    "start_station_id": "537",
    "start_station_name": "St. Olavs gate",
    "start_station_description": "ved Pilestredet",
    "start_station_latitude": 59.9179676629428,
    "start_station_longitude": 10.738628884264756,
    "end_station_id": "537",
    "end_station_name": "St. Olavs gate",
    "end_station_description": "ved Pilestredet",
    "end_station_latitude": 59.9179676629428,
    "end_station_longitude": 10.738628884264756
  },
  {
    "started_at": "2024-06-02 04:33:04.317000+00:00",
    "ended_at": "2024-06-02 04:43:59.743000+00:00",
    "duration": 655,
    "start_station_id": "525",
    "start_station_name": "Myraløkka Øst",
    "start_station_description": "ved Bentsenbrua",
    "start_station_latitude": 59.937205,
    "start_station_longitude": 10.7605813,
    "end_station_id": "1023",
    "end_station_name": "Professor Aschehougs plass",
    "end_station_description": "ved Kristian IVs gate",
    "end_station_latitude": 59.9147672,
    "end_station_longitude": 10.740971
  },
  {
    "started_at": "2024-06-02 04:34:47.108000+00:00",
    "ended_at": "2024-06-02 04:54:45.414000+00:00",
    "duration": 1198,
    "start_station_id": "537",
    "start_station_name": "St. Olavs gate",
    "start_station_description": "ved Pilestredet",
    "start_station_latitude": 59.9179676629428,
    "start_station_longitude": 10.738628884264756,
    "end_station_id": "418",
    "end_station_name": "Norsk Folkemuseum",
    "end_station_description": "utenfor inngangen",
    "end_station_latitude": 59.907674,
    "end_station_longitude": 10.686843
  },
  {
    "started_at": "2024-06-02 04:47:02.463000+00:00",
    "ended_at": "2024-06-02 04:55:25.918000+00:00",
    "duration": 503,
    "start_station_id": "551",
    "start_station_name": "Olaf Ryes plass",
    "start_station_description": "langs Sofienberggata",
    "start_station_latitude": 59.922425,
    "start_station_longitude": 10.758182,
    "end_station_id": "574",
    "end_station_name": "Annette Thommessens Plass",
    "end_station_description": "langs Schweigaards gate",
    "end_station_latitude": 59.9107393,
    "end_station_longitude": 10.7609998
  },
  {
    "started_at": "2024-06-02 04:48:58.913000+00:00",
    "ended_at": "2024-06-02 04:51:59.951000+00:00",
    "duration": 181,
    "start_station_id": "554",
    "start_station_name": "Tåsen Senter",
    "start_station_description": "ved Rolf Wickstrøms vei",
    "start_station_latitude": 59.952659,
    "start_station_longitude": 10.751165,
    "end_station_id": "517",
    "end_station_name": "Tåsenløkka",
    "end_station_description": "langs Uelands gate",
    "end_station_latitude": 59.9433939,
    "end_station_longitude": 10.7482848
  },
  {
    "started_at": "2024-06-02 04:50:16.726000+00:00",
    "ended_at": "2024-06-02 05:01:10.437000+00:00",
    "duration": 653,
    "start_station_id": "499",
    "start_station_name": "Bjerregaards gate",
    "start_station_description": "ovenfor Fredrikke Qvams gate",
    "start_station_latitude": 59.925488,
    "start_station_longitude": 10.746058,
    "end_station_id": "590",
    "end_station_name": "Majorstua skole",
    "end_station_description": "langs Bogstadveien",
    "end_station_latitude": 59.9294351,
    "end_station_longitude": 10.7136816
  },
  {
    "started_at": "2024-06-02 04:54:50.631000+00:00",
    "ended_at": "2024-06-02 05:07:08.839000+00:00",
    "duration": 738,
    "start_station_id": "408",
    "start_station_name": "Tøyen skole",
    "start_station_description": "forsiden av skolebygget",
    "start_station_latitude": 59.914943,
    "start_station_longitude": 10.773977,
    "end_station_id": "480",
    "end_station_name": "Helga Helgesens plass",
    "end_station_description": "langs Grønlandsleiret",
    "end_station_latitude": 59.9121109,
    "end_station_longitude": 10.7661939
  },
  {
    "started_at": "2024-06-02 04:58:23.784000+00:00",
    "ended_at": "2024-06-02 05:01:41.952000+00:00",
    "duration": 198,
    "start_station_id": "506",
    "start_station_name": "Botanisk Hage vest",
    "start_station_description": "ved Blytts gate",
    "start_station_latitude": 59.92012811804052,
    "start_station_longitude": 10.768875408563598,
    "end_station_id": "2308",
    "end_station_name": "Gunerius",
    "end_station_description": "utenfor Storgata 33",
    "end_station_latitude": 59.91459878869395,
    "end_station_longitude": 10.753398500006654
  },
  {
    "started_at": "2024-06-02 04:58:34.622000+00:00",
    "ended_at": "2024-06-02 05:06:54.420000+00:00",
    "duration": 499,
    "start_station_id": "487",
    "start_station_name": "Carl Berners plass nord",
    "start_station_description": "ved Hasleveien",
    "start_station_latitude": 59.926929,
    "start_station_longitude": 10.776971,
    "end_station_id": "383",
    "end_station_name": "Arkitekt Rivertz Plass",
    "end_station_description": "langs Uelands gate",
    "end_station_latitude": 59.934936,
    "end_station_longitude": 10.749466
  },
  {
    "started_at": "2024-06-02 04:58:52.562000+00:00",
    "ended_at": "2024-06-02 05:05:44.504000+00:00",
    "duration": 411,
    "start_station_id": "579",
    "start_station_name": "Bogstadveien",
    "start_station_description": "ved Sporveisgata",
    "start_station_latitude": 59.924732,
    "start_station_longitude": 10.724628,
    "end_station_id": "570",
    "end_station_name": "Frøen T-bane",
    "end_station_description": "langs Slemdalsveien",
    "end_station_latitude": 59.9347352,
    "end_station_longitude": 10.7096985
  },
  {
    "started_at": "2024-06-02 04:59:22.018000+00:00",
    "ended_at": "2024-06-02 05:08:14.764000+00:00",
    "duration": 532,
    "start_station_id": "466",
    "start_station_name": "Ullevålsalléen",
    "start_station_description": "langs Sognsveien",
    "start_station_latitude": 59.937913,
    "start_station_longitude": 10.73048,
    "end_station_id": "567",
    "end_station_name": "Forskningsveien",
    "end_station_description": "ved SINTEF",
    "end_station_latitude": 59.945450633702556,
    "end_station_longitude": 10.713867957672134
  },
  {
    "started_at": "2024-06-02 05:07:03.332000+00:00",
    "ended_at": "2024-06-02 05:08:31.027000+00:00",
    "duration": 87,
    "start_station_id": "564",
    "start_station_name": "Oscars gate",
    "start_station_description": "ved Hegdehaugsveien",
    "start_station_latitude": 59.9224222,
    "start_station_longitude": 10.7272388,
    "end_station_id": "564",
    "end_station_name": "Oscars gate",
    "end_station_description": "ved Hegdehaugsveien",
    "end_station_latitude": 59.9224222,
    "end_station_longitude": 10.7272388
  },
  {
    "started_at": "2024-06-02 05:07:13.589000+00:00",
    "ended_at": "2024-06-02 05:23:12.125000+00:00",
    "duration": 958,
    "start_station_id": "388",
    "start_station_name": "Skovveien",
    "start_station_description": "langs Frognerveien",
    "start_station_latitude": 59.9163309,
    "start_station_longitude": 10.716349,
    "end_station_id": "582",
    "end_station_name": "Stavangergata",
    "end_station_description": "ved Uelands gate",
    "end_station_latitude": 59.94114763297182,
    "end_station_longitude": 10.750775120272449
  },
  {
    "started_at": "2024-06-02 05:07:41.106000+00:00",
    "ended_at": "2024-06-02 05:17:06.265000+00:00",
    "duration": 565,
    "start_station_id": "514",
    "start_station_name": "Sofienberggata",
    "start_station_description": "ved Sars gate",
    "start_station_latitude": 59.9212063,
    "start_station_longitude": 10.7699892,
    "end_station_id": "384",
    "end_station_name": "Vår Frelsers gravlund",
    "end_station_description": "langs Ullevålsveien",
    "end_station_latitude": 59.91944043984847,
    "end_station_longitude": 10.7437646218726
  },
  {
    "started_at": "2024-06-02 05:10:42.329000+00:00",
    "ended_at": "2024-06-02 05:16:25.099000+00:00",
    "duration": 342,
    "start_station_id": "499",
    "start_station_name": "Bjerregaards gate",
    "start_station_description": "ovenfor Fredrikke Qvams gate",
    "start_station_latitude": 59.925488,
    "start_station_longitude": 10.746058,
    "end_station_id": "2357",
    "end_station_name": "Aker Brygge 2 mot Rådhusplassen",
    "end_station_description": "ved plattform H i retning rådhuset",
    "end_station_latitude": 59.91111544486938,
    "end_station_longitude": 10.730396895054923
  },
  {
    "started_at": "2024-06-02 05:11:35.224000+00:00",
    "ended_at": "2024-06-02 05:15:36.406000+00:00",
    "duration": 241,
    "start_station_id": "1023",
    "start_station_name": "Professor Aschehougs plass",
    "start_station_description": "ved Kristian IVs gate",
    "start_station_latitude": 59.9147672,
    "start_station_longitude": 10.740971,
    "end_station_id": "599",
    "end_station_name": "Paléhaven",
    "end_station_description": "langs Strandgata",
    "end_station_latitude": 59.910331,
    "end_station_longitude": 10.75011
  },
  {
    "started_at": "2024-06-02 05:12:19.279000+00:00",
    "ended_at": "2024-06-02 05:20:33.540000+00:00",
    "duration": 494,
    "start_station_id": "430",
    "start_station_name": "Spikersuppa Vest",
    "start_station_description": "ved Nasjonalteateret",
    "start_station_latitude": 59.91372007130073,
    "start_station_longitude": 10.735886645853412,
    "end_station_id": "412",
    "end_station_name": "Jakob kirke",
    "end_station_description": "langs Torggata",
    "end_station_latitude": 59.917866,
    "end_station_longitude": 10.754898
  },
  {
    "started_at": "2024-06-02 05:12:45.386000+00:00",
    "ended_at": "2024-06-02 05:23:11.567000+00:00",
    "duration": 626,
    "start_station_id": "535",
    "start_station_name": "Uranienborgveien",
    "start_station_description": "vest for Slottsparken",
    "start_station_latitude": 59.9200421,
    "start_station_longitude": 10.726634,
    "end_station_id": "484",
    "end_station_name": "Karenslyst allé",
    "end_station_description": "ved Skabos vei",
    "end_station_latitude": 59.92033,
    "end_station_longitude": 10.683814
  },
  {
    "started_at": "2024-06-02 05:12:46.625000+00:00",
    "ended_at": "2024-06-02 05:20:40.524000+00:00",
    "duration": 473,
    "start_station_id": "597",
    "start_station_name": "Fredensborg",
    "start_station_description": "ved rundkjøringen",
    "start_station_latitude": 59.920995,
    "start_station_longitude": 10.750358,
    "end_station_id": "555",
    "end_station_name": "Griffenfeldts gate",
    "end_station_description": "ved Colletts gate",
    "end_station_latitude": 59.9337026,
    "end_station_longitude": 10.7519299
  },
  {
    "started_at": "2024-06-02 05:13:26.505000+00:00",
    "ended_at": "2024-06-02 05:24:40.133000+00:00",
    "duration": 673,
    "start_station_id": "742",
    "start_station_name": "Hasle",
    "start_station_description": "langs Økernveien",
    "start_station_latitude": 59.924342,
    "start_station_longitude": 10.79285,
    "end_station_id": "2328",
    "end_station_name": "The Hub",
    "end_station_description": "Mellom Oslo City og The Hub hotel",
    "end_station_latitude": 59.912522370233745,
    "end_station_longitude": 10.750910185807754
  },
  {
    "started_at": "2024-06-02 05:19:17.841000+00:00",
    "ended_at": "2024-06-02 05:25:39.790000+00:00",
    "duration": 381,
    "start_station_id": "444",
    "start_station_name": "AHO",
    "start_station_description": "langs Maridalsveien",
    "start_station_latitude": 59.925265,
    "start_station_longitude": 10.750462,
    "end_station_id": "480",
    "end_station_name": "Helga Helgesens plass",
    "end_station_description": "langs Grønlandsleiret",
    "end_station_latitude": 59.9121109,
    "end_station_longitude": 10.7661939
  },
  {
    "started_at": "2024-06-02 05:26:10.102000+00:00",
    "ended_at": "2024-06-02 05:37:26.855000+00:00",
    "duration": 676,
    "start_station_id": "607",
    "start_station_name": "Marcus Thranes gate",
    "start_station_description": "ved Akerselva",
    "start_station_latitude": 59.93277225626508,
    "start_station_longitude": 10.758594919923468,
    "end_station_id": "400",
    "end_station_name": "OsloMet",
    "end_station_description": "langs Pilestredet",
    "end_station_latitude": 59.919927,
    "end_station_longitude": 10.735428
  },
  {
    "started_at": "2024-06-02 05:26:31.054000+00:00",
    "ended_at": "2024-06-02 05:33:13.819000+00:00",
    "duration": 402,
    "start_station_id": "394",
    "start_station_name": "Bjølsen Studentby",
    "start_station_description": "ved rundkjøringen",
    "start_station_latitude": 59.943777539367225,
    "start_station_longitude": 10.760121127577955,
    "end_station_id": "503",
    "end_station_name": "Fagerheimgata",
    "end_station_description": "ved Dælenenga busstopp",
    "end_station_latitude": 59.927605868377185,
    "end_station_longitude": 10.76598469881135
  },
  {
    "started_at": "2024-06-02 05:26:56.981000+00:00",
    "ended_at": "2024-06-02 05:37:45.454000+00:00",
    "duration": 648,
    "start_station_id": "393",
    "start_station_name": "Hans Nielsen Hauges plass",
    "start_station_description": "langs Hans Nielsen Hauges gate",
    "start_station_latitude": 59.939244,
    "start_station_longitude": 10.774319,
    "end_station_id": "396",
    "end_station_name": "Kirkeristen",
    "end_station_description": "ved Torggata",
    "end_station_latitude": 59.91300035973293,
    "end_station_longitude": 10.746760585982287
  },
  {
    "started_at": "2024-06-02 05:29:16.825000+00:00",
    "ended_at": "2024-06-02 06:15:39.303000+00:00",
    "duration": 2782,
    "start_station_id": "2340",
    "start_station_name": "Tiedemannsparken",
    "start_station_description": "langs Grenseveien ved fotgjengerbru",
    "start_station_latitude": 59.92024767905539,
    "start_station_longitude": 10.793540704010042,
    "end_station_id": "2340",
    "end_station_name": "Tiedemannsparken",
    "end_station_description": "langs Grenseveien ved fotgjengerbru",
    "end_station_latitude": 59.92024767905539,
    "end_station_longitude": 10.793540704010042
  },
  {
    "started_at": "2024-06-02 05:31:05.794000+00:00",
    "ended_at": "2024-06-02 05:34:32.030000+00:00",
    "duration": 206,
    "start_station_id": "561",
    "start_station_name": "Kirkeveien",
    "start_station_description": "ved Gørbitz' gate",
    "start_station_latitude": 59.93347989334691,
    "start_station_longitude": 10.726294394131088,
    "end_station_id": "413",
    "end_station_name": "Majorstuen",
    "end_station_description": "på Vinkelplassen",
    "end_station_latitude": 59.929045,
    "end_station_longitude": 10.716926
  },
  {
    "started_at": "2024-06-02 05:39:12.709000+00:00",
    "ended_at": "2024-06-02 05:51:30.779000+00:00",
    "duration": 738,
    "start_station_id": "572",
    "start_station_name": "Skøyen",
    "start_station_description": "under broen",
    "start_station_latitude": 59.92226850808104,
    "start_station_longitude": 10.679579749668129,
    "end_station_id": "395",
    "end_station_name": "Frogner Tennisklubb",
    "end_station_description": "ved inngangen til tennisbanen",
    "end_station_latitude": 59.9261831,
    "end_station_longitude": 10.7098327
  },
  {
    "started_at": "2024-06-02 05:39:18.127000+00:00",
    "ended_at": "2024-06-02 05:56:14.641000+00:00",
    "duration": 1016,
    "start_station_id": "499",
    "start_station_name": "Bjerregaards gate",
    "start_station_description": "ovenfor Fredrikke Qvams gate",
    "start_station_latitude": 59.925488,
    "start_station_longitude": 10.746058,
    "end_station_id": "453",
    "end_station_name": "Frogner Stadion",
    "end_station_description": "ved hovedinngangen",
    "end_station_latitude": 59.92753764682686,
    "end_station_longitude": 10.710262803261259
  },
  {
    "started_at": "2024-06-02 05:39:31.384000+00:00",
    "ended_at": "2024-06-02 05:43:41.136000+00:00",
    "duration": 249,
    "start_station_id": "626",
    "start_station_name": "Drammensveien",
    "start_station_description": "ved Ingar Nilsens vei",
    "start_station_latitude": 59.9204038,
    "start_station_longitude": 10.691147,
    "end_station_id": "572",
    "end_station_name": "Skøyen",
    "end_station_description": "under broen",
    "end_station_latitude": 59.92226850808104,
    "end_station_longitude": 10.679579749668129
  },
  {
    "started_at": "2024-06-02 05:39:40.734000+00:00",
    "ended_at": "2024-06-02 06:35:24.763000+00:00",
    "duration": 3344,
    "start_station_id": "426",
    "start_station_name": "Gimle Kino",
    "start_station_description": "ved Frogner Kirke",
    "start_station_latitude": 59.91728078292675,
    "start_station_longitude": 10.708375798767435,
    "end_station_id": "748",
    "end_station_name": "Hydroparken",
    "end_station_description": "langs Drammensveien",
    "end_station_latitude": 59.914145,
    "end_station_longitude": 10.715505
  },
  {
    "started_at": "2024-06-02 05:42:07.167000+00:00",
    "ended_at": "2024-06-02 05:56:36.136000+00:00",
    "duration": 868,
    "start_station_id": "499",
    "start_station_name": "Bjerregaards gate",
    "start_station_description": "ovenfor Fredrikke Qvams gate",
    "start_station_latitude": 59.925488,
    "start_station_longitude": 10.746058,
    "end_station_id": "453",
    "end_station_name": "Frogner Stadion",
    "end_station_description": "ved hovedinngangen",
    "end_station_latitude": 59.92753764682686,
    "end_station_longitude": 10.710262803261259
  },
  {
    "started_at": "2024-06-02 05:45:23.663000+00:00",
    "ended_at": "2024-06-02 06:19:19.733000+00:00",
    "duration": 2036,
    "start_station_id": "589",
    "start_station_name": "Huk 1",
    "start_station_description": "stativ nærmest busstopp (markert 1)",
    "start_station_latitude": 59.89853221724158,
    "start_station_longitude": 10.674403950323182,
    "end_station_id": "2315",
    "end_station_name": "Rostockgata",
    "end_station_description": "utenfor Bjørvika visningssenter",
    "end_station_latitude": 59.90691970255054,
    "end_station_longitude": 10.760311802881915
  },
  {
    "started_at": "2024-06-02 05:45:37.558000+00:00",
    "ended_at": "2024-06-02 05:58:05.768000+00:00",
    "duration": 748,
    "start_station_id": "567",
    "start_station_name": "Forskningsveien",
    "start_station_description": "ved SINTEF",
    "start_station_latitude": 59.945450633702556,
    "start_station_longitude": 10.713867957672134,
    "end_station_id": "540",
    "end_station_name": "Lilleborgbanen",
    "end_station_description": "langs Ole Bulls gate",
    "end_station_latitude": 59.93363159074286,
    "end_station_longitude": 10.769118139881124
  },
  {
    "started_at": "2024-06-02 05:48:00.638000+00:00",
    "ended_at": "2024-06-02 06:37:37.464000+00:00",
    "duration": 2976,
    "start_station_id": "603",
    "start_station_name": "Frogner plass",
    "start_station_description": "i rundkjøringen",
    "start_station_latitude": 59.9225392,
    "start_station_longitude": 10.7045406,
    "end_station_id": "450",
    "end_station_name": "Elisenberg",
    "end_station_description": "ved holdeplassen",
    "end_station_latitude": 59.919524,
    "end_station_longitude": 10.70884
  },
  {
    "started_at": "2024-06-02 05:48:17.120000+00:00",
    "ended_at": "2024-06-02 05:54:09.303000+00:00",
    "duration": 352,
    "start_station_id": "514",
    "start_station_name": "Sofienberggata",
    "start_station_description": "ved Sars gate",
    "start_station_latitude": 59.9212063,
    "start_station_longitude": 10.7699892,
    "end_station_id": "392",
    "end_station_name": "Sjøsiden 2 ved fontenen",
    "end_station_description": "to rader nærmest fontenen",
    "end_station_latitude": 59.910180852633516,
    "end_station_longitude": 10.751698750995615
  },
  {
    "started_at": "2024-06-02 05:48:24.487000+00:00",
    "ended_at": "2024-06-02 06:42:50.639000+00:00",
    "duration": 3266,
    "start_station_id": "383",
    "start_station_name": "Arkitekt Rivertz Plass",
    "start_station_description": "langs Uelands gate",
    "start_station_latitude": 59.934936,
    "start_station_longitude": 10.749466,
    "end_station_id": "2305",
    "end_station_name": "Hesselbergs Gate",
    "end_station_description": "ved Toftes Gate",
    "end_station_latitude": 59.927777943193746,
    "end_station_longitude": 10.761256419316368
  },
  {
    "started_at": "2024-06-02 05:49:29.610000+00:00",
    "ended_at": "2024-06-02 05:58:50.743000+00:00",
    "duration": 561,
    "start_station_id": "486",
    "start_station_name": "Blindern Studenthus",
    "start_station_description": "langs Blindernveien",
    "start_station_latitude": 59.93522040770026,
    "start_station_longitude": 10.726476622250004,
    "end_station_id": "572",
    "end_station_name": "Skøyen",
    "end_station_description": "under broen",
    "end_station_latitude": 59.92226850808104,
    "end_station_longitude": 10.679579749668129
  },
  {
    "started_at": "2024-06-02 05:50:14.839000+00:00",
    "ended_at": "2024-06-02 06:03:07.317000+00:00",
    "duration": 772,
    "start_station_id": "620",
    "start_station_name": "Bislettgata",
    "start_station_description": "ved Sofies Gate",
    "start_station_latitude": 59.92377440938114,
    "start_station_longitude": 10.734712874574,
    "end_station_id": "580",
    "end_station_name": "Georg Morgenstiernes hus",
    "end_station_description": "ved Moltke Moes vei",
    "end_station_latitude": 59.939025551395765,
    "end_station_longitude": 10.723002619643406
  },
  {
    "started_at": "2024-06-02 05:50:16.793000+00:00",
    "ended_at": "2024-06-02 06:00:03.574000+00:00",
    "duration": 586,
    "start_station_id": "584",
    "start_station_name": "Henrik Wergelands allé",
    "start_station_description": "ved Bogstadveien",
    "start_station_latitude": 59.9268942,
    "start_station_longitude": 10.7207894,
    "end_station_id": "611",
    "end_station_name": "Bankplassen",
    "end_station_description": "ved Kirkegata",
    "end_station_latitude": 59.908454,
    "end_station_longitude": 10.741869
  },
  {
    "started_at": "2024-06-02 05:55:18.239000+00:00",
    "ended_at": "2024-06-02 06:06:06.100000+00:00",
    "duration": 647,
    "start_station_id": "427",
    "start_station_name": "Briskeby",
    "start_station_description": "ved Uranienborg skole",
    "start_station_latitude": 59.920218,
    "start_station_longitude": 10.717978,
    "end_station_id": "434",
    "end_station_name": "Lindern",
    "end_station_description": "krysset ved Kirkeveien og Stensgata",
    "end_station_latitude": 59.9358883,
    "end_station_longitude": 10.7350062
  },
  {
    "started_at": "2024-06-02 05:57:17.066000+00:00",
    "ended_at": "2024-06-02 06:10:11.175000+00:00",
    "duration": 774,
    "start_station_id": "622",
    "start_station_name": "Pilestredet 63",
    "start_station_description": "ved trikkestoppet",
    "start_station_latitude": 59.9238826,
    "start_station_longitude": 10.7313627,
    "end_station_id": "2280",
    "end_station_name": "Klingenberggata",
    "end_station_description": "By Olav V street",
    "end_station_latitude": 59.913150534075015,
    "end_station_longitude": 10.732281291700133
  },
  {
    "started_at": "2024-06-02 05:58:23.283000+00:00",
    "ended_at": "2024-06-02 06:04:58.434000+00:00",
    "duration": 395,
    "start_station_id": "377",
    "start_station_name": "Tøyenparken",
    "start_station_description": "ved Caltexløkka",
    "start_station_latitude": 59.915667,
    "start_station_longitude": 10.7775665,
    "end_station_id": "493",
    "end_station_name": "Sofienbergparken nordvest",
    "end_station_description": "langs Helgesens Gate",
    "end_station_latitude": 59.9243639,
    "end_station_longitude": 10.7615858
  },
  {
    "started_at": "2024-06-02 05:59:03.988000+00:00",
    "ended_at": "2024-06-02 06:59:02.688000+00:00",
    "duration": 3598,
    "start_station_id": "744",
    "start_station_name": "Hallénparken",
    "start_station_description": "ved Vogts gate",
    "start_station_latitude": 59.9315302,
    "start_station_longitude": 10.762169,
    "end_station_id": "589",
    "end_station_name": "Huk 1",
    "end_station_description": "stativ nærmest busstopp (markert 1)",
    "end_station_latitude": 59.89853221724158,
    "end_station_longitude": 10.674403950323182
  },
  {
    "started_at": "2024-06-02 05:59:12.427000+00:00",
    "ended_at": "2024-06-02 06:00:39.645000+00:00",
    "duration": 87,
    "start_station_id": "543",
    "start_station_name": "Fyrstikktorget",
    "start_station_description": "ved Karoline Kristiansens vei",
    "start_station_latitude": 59.91381587564694,
    "start_station_longitude": 10.798093360118871,
    "end_station_id": "543",
    "end_station_name": "Fyrstikktorget",
    "end_station_description": "ved Karoline Kristiansens vei",
    "end_station_latitude": 59.91381587564694,
    "end_station_longitude": 10.798093360118871
  },
  {
    "started_at": "2024-06-02 05:59:42.738000+00:00",
    "ended_at": "2024-06-02 06:10:59.059000+00:00",
    "duration": 676,
    "start_station_id": "500",
    "start_station_name": "Anker Hotel",
    "start_station_description": "langs Storgata",
    "start_station_latitude": 59.9172794,
    "start_station_longitude": 10.7581553,
    "end_station_id": "624",
    "end_station_name": "Dælenenggata",
    "end_station_description": "ved Fagerheimgata",
    "end_station_latitude": 59.9287502718149,
    "end_station_longitude": 10.767546377298158
  },
  {
    "started_at": "2024-06-02 06:01:45.962000+00:00",
    "ended_at": "2024-06-02 06:11:35.324000+00:00",
    "duration": 589,
    "start_station_id": "607",
    "start_station_name": "Marcus Thranes gate",
    "start_station_description": "ved Akerselva",
    "start_station_latitude": 59.93277225626508,
    "start_station_longitude": 10.758594919923468,
    "end_station_id": "609",
    "end_station_name": "Fred Olsens gate",
    "end_station_description": "ved Karl Johans gate",
    "end_station_latitude": 59.9110506,
    "end_station_longitude": 10.7493737
  },
  {
    "started_at": "2024-06-02 06:01:50.167000+00:00",
    "ended_at": "2024-06-02 06:15:35.300000+00:00",
    "duration": 825,
    "start_station_id": "540",
    "start_station_name": "Lilleborgbanen",
    "start_station_description": "langs Ole Bulls gate",
    "start_station_latitude": 59.93363159074286,
    "start_station_longitude": 10.769118139881124,
    "end_station_id": "460",
    "end_station_name": "Botanisk Hage sør",
    "end_station_description": "langs Jens Bjelkes gate",
    "end_station_latitude": 59.915417698024385,
    "end_station_longitude": 10.76933022142641
  },
  {
    "started_at": "2024-06-02 06:05:32.617000+00:00",
    "ended_at": "2024-06-02 06:15:22.379000+00:00",
    "duration": 589,
    "start_station_id": "607",
    "start_station_name": "Marcus Thranes gate",
    "start_station_description": "ved Akerselva",
    "start_station_latitude": 59.93277225626508,
    "start_station_longitude": 10.758594919923468,
    "end_station_id": "415",
    "end_station_name": "Sinsenveien",
    "end_station_description": "ved Kongehellegata",
    "end_station_latitude": 59.929542,
    "end_station_longitude": 10.781053
  },
  {
    "started_at": "2024-06-02 06:13:00.868000+00:00",
    "ended_at": "2024-06-02 06:21:45.166000+00:00",
    "duration": 524,
    "start_station_id": "499",
    "start_station_name": "Bjerregaards gate",
    "start_station_description": "ovenfor Fredrikke Qvams gate",
    "start_station_latitude": 59.925488,
    "start_station_longitude": 10.746058,
    "end_station_id": "388",
    "end_station_name": "Skovveien",
    "end_station_description": "langs Frognerveien",
    "end_station_latitude": 59.9163309,
    "end_station_longitude": 10.716349
  },
  {
    "started_at": "2024-06-02 06:14:51.153000+00:00",
    "ended_at": "2024-06-02 06:39:32.556000+00:00",
    "duration": 1481,
    "start_station_id": "746",
    "start_station_name": "Bygdøy allé",
    "start_station_description": "ved parkeringsplassen",
    "start_station_latitude": 59.919001,
    "start_station_longitude": 10.692321,
    "end_station_id": "462",
    "end_station_name": "Stensparken",
    "end_station_description": "ved Sporveisgata",
    "end_station_latitude": 59.92714,
    "end_station_longitude": 10.730981
  },
  {
    "started_at": "2024-06-02 06:15:36.091000+00:00",
    "ended_at": "2024-06-02 06:21:03.438000+00:00",
    "duration": 327,
    "start_station_id": "578",
    "start_station_name": "Hallings gate",
    "start_station_description": "langs Dalsbergstien",
    "start_station_latitude": 59.922777,
    "start_station_longitude": 10.738655,
    "end_station_id": "390",
    "end_station_name": "Saga Kino",
    "end_station_description": "langs Olav Vs gate",
    "end_station_latitude": 59.91424026794647,
    "end_station_longitude": 10.732771354719745
  },
  {
    "started_at": "2024-06-02 06:15:56.111000+00:00",
    "ended_at": "2024-06-02 06:22:17.677000+00:00",
    "duration": 381,
    "start_station_id": "2315",
    "start_station_name": "Rostockgata",
    "start_station_description": "utenfor Bjørvika visningssenter",
    "start_station_latitude": 59.90691970255054,
    "start_station_longitude": 10.760311802881915,
    "end_station_id": "423",
    "end_station_name": "Schous plass",
    "end_station_description": "nærmest rundkjøringen",
    "end_station_latitude": 59.920335,
    "end_station_longitude": 10.760804
  },
  {
    "started_at": "2024-06-02 06:17:04.908000+00:00",
    "ended_at": "2024-06-02 06:18:44.592000+00:00",
    "duration": 99,
    "start_station_id": "2339",
    "start_station_name": "Elgsletta",
    "start_station_description": "langs Nylandsveien",
    "start_station_latitude": 59.91564920880896,
    "start_station_longitude": 10.761724502548105,
    "end_station_id": "2339",
    "end_station_name": "Elgsletta",
    "end_station_description": "langs Nylandsveien",
    "end_station_latitude": 59.91564920880896,
    "end_station_longitude": 10.761724502548105
  },
  {
    "started_at": "2024-06-02 06:17:44.428000+00:00",
    "ended_at": "2024-06-02 06:29:18.939000+00:00",
    "duration": 694,
    "start_station_id": "383",
    "start_station_name": "Arkitekt Rivertz Plass",
    "start_station_description": "langs Uelands gate",
    "start_station_latitude": 59.934936,
    "start_station_longitude": 10.749466,
    "end_station_id": "396",
    "end_station_name": "Kirkeristen",
    "end_station_description": "ved Torggata",
    "end_station_latitude": 59.91300035973293,
    "end_station_longitude": 10.746760585982287
  },
  {
    "started_at": "2024-06-02 06:17:47.047000+00:00",
    "ended_at": "2024-06-02 06:31:38.330000+00:00",
    "duration": 831,
    "start_station_id": "413",
    "start_station_name": "Majorstuen",
    "start_station_description": "på Vinkelplassen",
    "start_station_latitude": 59.929045,
    "start_station_longitude": 10.716926,
    "end_station_id": "413",
    "end_station_name": "Majorstuen",
    "end_station_description": "på Vinkelplassen",
    "end_station_latitude": 59.929045,
    "end_station_longitude": 10.716926
  },
  {
    "started_at": "2024-06-02 06:18:28.595000+00:00",
    "ended_at": "2024-06-02 06:29:35.220000+00:00",
    "duration": 666,
    "start_station_id": "598",
    "start_station_name": "Sofienbergparken nord",
    "start_station_description": "langs Helgesens gate",
    "start_station_latitude": 59.923229,
    "start_station_longitude": 10.766171,
    "end_station_id": "441",
    "end_station_name": "Vippetangen øst",
    "end_station_description": "nærmest Operaen",
    "end_station_latitude": 59.903989,
    "end_station_longitude": 10.741077
  },
  {
    "started_at": "2024-06-02 06:19:09.311000+00:00",
    "ended_at": "2024-06-02 06:26:32.725000+00:00",
    "duration": 443,
    "start_station_id": "417",
    "start_station_name": "Uranienborgparken",
    "start_station_description": "langs Holtegata",
    "start_station_latitude": 59.922485,
    "start_station_longitude": 10.720896,
    "end_station_id": "428",
    "end_station_name": "Olav Kyrres plass",
    "end_station_description": "ved den sveitsiske ambassade",
    "end_station_latitude": 59.9193337,
    "end_station_longitude": 10.6968953
  },
  {
    "started_at": "2024-06-02 06:19:22.369000+00:00",
    "ended_at": "2024-06-02 06:30:53.098000+00:00",
    "duration": 690,
    "start_station_id": "483",
    "start_station_name": "Hausmanns gate",
    "start_station_description": "ved Røde Kors",
    "start_station_latitude": 59.915451,
    "start_station_longitude": 10.758328,
    "end_station_id": "582",
    "end_station_name": "Stavangergata",
    "end_station_description": "ved Uelands gate",
    "end_station_latitude": 59.94114763297182,
    "end_station_longitude": 10.750775120272449
  },
  {
    "started_at": "2024-06-02 06:20:03.119000+00:00",
    "ended_at": "2024-06-02 06:25:35.941000+00:00",
    "duration": 332,
    "start_station_id": "548",
    "start_station_name": "Colbjørnsens gate",
    "start_station_description": "ved Skovveien",
    "start_station_latitude": 59.91731888534716,
    "start_station_longitude": 10.716909039918278,
    "end_station_id": "446",
    "end_station_name": "Bislett Stadion",
    "end_station_description": "ved rundkjøringen",
    "end_station_latitude": 59.925471317049954,
    "end_station_longitude": 10.73121932213806
  },
  {
    "started_at": "2024-06-02 06:24:05.008000+00:00",
    "ended_at": "2024-06-02 06:34:57.450000+00:00",
    "duration": 652,
    "start_station_id": "542",
    "start_station_name": "Grünerhagen Nord",
    "start_station_description": "ved Sofienberggata",
    "start_station_latitude": 59.9224256,
    "start_station_longitude": 10.7554274,
    "end_station_id": "380",
    "end_station_name": "Bentsebrugata",
    "end_station_description": "rett over busstoppet",
    "end_station_latitude": 59.93923,
    "end_station_longitude": 10.75917
  },
  {
    "started_at": "2024-06-02 06:24:55.316000+00:00",
    "ended_at": "2024-06-02 06:38:09.056000+00:00",
    "duration": 793,
    "start_station_id": "533",
    "start_station_name": "Sørvest for Slottsparken",
    "start_station_description": "langs Henrik Ibsens gate",
    "start_station_latitude": 59.915262,
    "start_station_longitude": 10.7253157,
    "end_station_id": "533",
    "end_station_name": "Sørvest for Slottsparken",
    "end_station_description": "langs Henrik Ibsens gate",
    "end_station_latitude": 59.915262,
    "end_station_longitude": 10.7253157
  },
  {
    "started_at": "2024-06-02 06:25:21.407000+00:00",
    "ended_at": "2024-06-02 06:29:53.774000+00:00",
    "duration": 272,
    "start_station_id": "592",
    "start_station_name": "Badebakken",
    "start_station_description": "langs Maridalsveien",
    "start_station_latitude": 59.94558091179507,
    "start_station_longitude": 10.760323881579982,
    "end_station_id": "438",
    "end_station_name": "BI Nydalen",
    "end_station_description": "ved hovedinngangen",
    "end_station_latitude": 59.949239,
    "end_station_longitude": 10.768576
  },
  {
    "started_at": "2024-06-02 06:28:31.623000+00:00",
    "ended_at": "2024-06-02 06:44:33.984000+00:00",
    "duration": 962,
    "start_station_id": "422",
    "start_station_name": "St. Hanshaugen",
    "start_station_description": "langs Waldemar Thranes gate",
    "start_station_latitude": 59.923703,
    "start_station_longitude": 10.740542,
    "end_station_id": "409",
    "end_station_name": "John Colletts plass",
    "end_station_description": "ved Sognsveien",
    "end_station_latitude": 59.940398,
    "end_station_longitude": 10.730036
  },
  {
    "started_at": "2024-06-02 06:29:29.093000+00:00",
    "ended_at": "2024-06-02 06:39:14.326000+00:00",
    "duration": 585,
    "start_station_id": "607",
    "start_station_name": "Marcus Thranes gate",
    "start_station_description": "ved Akerselva",
    "start_station_latitude": 59.93277225626508,
    "start_station_longitude": 10.758594919923468,
    "end_station_id": "392",
    "end_station_name": "Sjøsiden 2 ved fontenen",
    "end_station_description": "to rader nærmest fontenen",
    "end_station_latitude": 59.910180852633516,
    "end_station_longitude": 10.751698750995615
  },
  {
    "started_at": "2024-06-02 06:32:04.110000+00:00",
    "ended_at": "2024-06-02 06:48:31.316000+00:00",
    "duration": 987,
    "start_station_id": "2334",
    "start_station_name": "Nybrua holdeplass",
    "start_station_description": "Vest for Storgata der den krysser Hausmanns gate",
    "start_station_latitude": 59.916544926082935,
    "start_station_longitude": 10.757428972017067,
    "end_station_id": "562",
    "end_station_name": "Slottsparken Øst",
    "end_station_description": "ved Nordraaks plass",
    "end_station_latitude": 59.917485,
    "end_station_longitude": 10.732128
  },
  {
    "started_at": "2024-06-02 06:32:26.651000+00:00",
    "ended_at": "2024-06-02 06:49:26.566000+00:00",
    "duration": 1019,
    "start_station_id": "2334",
    "start_station_name": "Nybrua holdeplass",
    "start_station_description": "Vest for Storgata der den krysser Hausmanns gate",
    "start_station_latitude": 59.916544926082935,
    "start_station_longitude": 10.757428972017067,
    "end_station_id": "562",
    "end_station_name": "Slottsparken Øst",
    "end_station_description": "ved Nordraaks plass",
    "end_station_latitude": 59.917485,
    "end_station_longitude": 10.732128
  },
  {
    "started_at": "2024-06-02 06:32:44.081000+00:00",
    "ended_at": "2024-06-02 06:42:07.710000+00:00",
    "duration": 563,
    "start_station_id": "451",
    "start_station_name": "Suhms gate",
    "start_station_description": "ved Oslo døvekirke",
    "start_station_latitude": 59.929419,
    "start_station_longitude": 10.726195,
    "end_station_id": "609",
    "end_station_name": "Fred Olsens gate",
    "end_station_description": "ved Karl Johans gate",
    "end_station_latitude": 59.9110506,
    "end_station_longitude": 10.7493737
  },
  {
    "started_at": "2024-06-02 06:32:46.466000+00:00",
    "ended_at": "2024-06-02 06:38:04.012000+00:00",
    "duration": 317,
    "start_station_id": "475",
    "start_station_name": "Hausmanns bru",
    "start_station_description": "langs Nylandsveien",
    "start_station_latitude": 59.9146509,
    "start_station_longitude": 10.7598719,
    "end_station_id": "2308",
    "end_station_name": "Gunerius",
    "end_station_description": "utenfor Storgata 33",
    "end_station_latitude": 59.91459878869395,
    "end_station_longitude": 10.753398500006654
  },
  {
    "started_at": "2024-06-02 06:33:04.173000+00:00",
    "ended_at": "2024-06-02 06:43:13.378000+00:00",
    "duration": 609,
    "start_station_id": "421",
    "start_station_name": "Alexander Kiellands Plass",
    "start_station_description": "langs Maridalsveien",
    "start_station_latitude": 59.92806670615684,
    "start_station_longitude": 10.751202636819613,
    "end_station_id": "421",
    "end_station_name": "Alexander Kiellands Plass",
    "end_station_description": "langs Maridalsveien",
    "end_station_latitude": 59.92806670615684,
    "end_station_longitude": 10.751202636819613
  },
  {
    "started_at": "2024-06-02 06:33:33.863000+00:00",
    "ended_at": "2024-06-02 06:42:10.275000+00:00",
    "duration": 516,
    "start_station_id": "424",
    "start_station_name": "Birkelunden",
    "start_station_description": "langs Seilduksgata",
    "start_station_latitude": 59.9256113,
    "start_station_longitude": 10.760926,
    "end_station_id": "465",
    "end_station_name": "Bjørvika",
    "end_station_description": "under broen Nylandsveien",
    "end_station_latitude": 59.909006,
    "end_station_longitude": 10.75618
  },
  {
    "started_at": "2024-06-02 06:33:42.085000+00:00",
    "ended_at": "2024-06-02 06:43:56.789000+00:00",
    "duration": 614,
    "start_station_id": "435",
    "start_station_name": "Fram-gården",
    "start_station_description": "langs Bygdøy Allé",
    "start_station_latitude": 59.915424,
    "start_station_longitude": 10.714577,
    "end_station_id": "465",
    "end_station_name": "Bjørvika",
    "end_station_description": "under broen Nylandsveien",
    "end_station_latitude": 59.909006,
    "end_station_longitude": 10.75618
  },
  {
    "started_at": "2024-06-02 06:34:40.890000+00:00",
    "ended_at": "2024-06-02 06:51:30.497000+00:00",
    "duration": 1009,
    "start_station_id": "415",
    "start_station_name": "Sinsenveien",
    "start_station_description": "ved Kongehellegata",
    "start_station_latitude": 59.929542,
    "start_station_longitude": 10.781053,
    "end_station_id": "390",
    "end_station_name": "Saga Kino",
    "end_station_description": "langs Olav Vs gate",
    "end_station_latitude": 59.91424026794647,
    "end_station_longitude": 10.732771354719745
  },
  {
    "started_at": "2024-06-02 06:36:41.526000+00:00",
    "ended_at": "2024-06-02 06:43:28.996000+00:00",
    "duration": 407,
    "start_station_id": "433",
    "start_station_name": "Ila",
    "start_station_description": "langs Uelandsgt ved Colletts",
    "start_station_latitude": 59.931828,
    "start_station_longitude": 10.748745,
    "end_station_id": "483",
    "end_station_name": "Hausmanns gate",
    "end_station_description": "ved Røde Kors",
    "end_station_latitude": 59.915451,
    "end_station_longitude": 10.758328
  },
  {
    "started_at": "2024-06-02 06:39:31.286000+00:00",
    "ended_at": "2024-06-02 06:45:07.390000+00:00",
    "duration": 336,
    "start_station_id": "440",
    "start_station_name": "Lakkegata",
    "start_station_description": "ved Sundtkvartalet",
    "start_station_latitude": 59.9172088,
    "start_station_longitude": 10.7622135,
    "end_station_id": "464",
    "end_station_name": "Sukkerbiten",
    "end_station_description": "ved gangbroen",
    "end_station_latitude": 59.905124380703484,
    "end_station_longitude": 10.753763553726515
  },
  {
    "started_at": "2024-06-02 06:39:51.213000+00:00",
    "ended_at": "2024-06-02 06:47:14.366000+00:00",
    "duration": 443,
    "start_station_id": "417",
    "start_station_name": "Uranienborgparken",
    "start_station_description": "langs Holtegata",
    "start_station_latitude": 59.922485,
    "start_station_longitude": 10.720896,
    "end_station_id": "481",
    "end_station_name": "Rådhusgata",
    "end_station_description": "ved Kontraskjæret trikkestopp",
    "end_station_latitude": 59.910924,
    "end_station_longitude": 10.736215
  },
  {
    "started_at": "2024-06-02 06:40:04.382000+00:00",
    "ended_at": "2024-06-02 06:44:01.176000+00:00",
    "duration": 236,
    "start_station_id": "417",
    "start_station_name": "Uranienborgparken",
    "start_station_description": "langs Holtegata",
    "start_station_latitude": 59.922485,
    "start_station_longitude": 10.720896,
    "end_station_id": "388",
    "end_station_name": "Skovveien",
    "end_station_description": "langs Frognerveien",
    "end_station_latitude": 59.9163309,
    "end_station_longitude": 10.716349
  },
  {
    "started_at": "2024-06-02 06:40:23.667000+00:00",
    "ended_at": "2024-06-02 07:13:51.204000+00:00",
    "duration": 2007,
    "start_station_id": "455",
    "start_station_name": "Sofienbergparken sør",
    "start_station_description": "langs Sofienberggata",
    "start_station_latitude": 59.922337,
    "start_station_longitude": 10.7617503,
    "end_station_id": "418",
    "end_station_name": "Norsk Folkemuseum",
    "end_station_description": "utenfor inngangen",
    "end_station_latitude": 59.907674,
    "end_station_longitude": 10.686843
  },
  {
    "started_at": "2024-06-02 06:41:18.960000+00:00",
    "ended_at": "2024-06-02 06:46:41.978000+00:00",
    "duration": 323,
    "start_station_id": "436",
    "start_station_name": "Vestkanttorvet",
    "start_station_description": "langs Tidemands gate",
    "start_station_latitude": 59.9244031,
    "start_station_longitude": 10.7130691,
    "end_station_id": "746",
    "end_station_name": "Bygdøy allé",
    "end_station_description": "ved parkeringsplassen",
    "end_station_latitude": 59.919001,
    "end_station_longitude": 10.692321
  },
  {
    "started_at": "2024-06-02 06:42:31.611000+00:00",
    "ended_at": "2024-06-02 06:50:07.915000+00:00",
    "duration": 456,
    "start_station_id": "398",
    "start_station_name": "Ringnes Park",
    "start_station_description": "ved Sannergata",
    "start_station_latitude": 59.92843404417577,
    "start_station_longitude": 10.75943014633117,
    "end_station_id": "2330",
    "end_station_name": "Stjerneplassen",
    "end_station_description": "Krysset Skippergata Storgata",
    "end_station_latitude": 59.91323316606503,
    "end_station_longitude": 10.749958763650312
  },
  {
    "started_at": "2024-06-02 06:44:05.228000+00:00",
    "ended_at": "2024-06-02 06:58:03.293000+00:00",
    "duration": 838,
    "start_station_id": "493",
    "start_station_name": "Sofienbergparken nordvest",
    "start_station_description": "langs Helgesens Gate",
    "start_station_latitude": 59.9243639,
    "start_station_longitude": 10.7615858,
    "end_station_id": "584",
    "end_station_name": "Henrik Wergelands allé",
    "end_station_description": "ved Bogstadveien",
    "end_station_latitude": 59.9268942,
    "end_station_longitude": 10.7207894
  },
  {
    "started_at": "2024-06-02 06:44:35.467000+00:00",
    "ended_at": "2024-06-02 06:59:13.393000+00:00",
    "duration": 877,
    "start_station_id": "382",
    "start_station_name": "Stensgata",
    "start_station_description": "ved trikkestoppet",
    "start_station_latitude": 59.92958561753996,
    "start_station_longitude": 10.732839000000013,
    "end_station_id": "436",
    "end_station_name": "Vestkanttorvet",
    "end_station_description": "langs Tidemands gate",
    "end_station_latitude": 59.9244031,
    "end_station_longitude": 10.7130691
  },
  {
    "started_at": "2024-06-02 06:45:05.926000+00:00",
    "ended_at": "2024-06-02 06:59:52.335000+00:00",
    "duration": 886,
    "start_station_id": "561",
    "start_station_name": "Kirkeveien",
    "start_station_description": "ved Gørbitz' gate",
    "start_station_latitude": 59.93347989334691,
    "start_station_longitude": 10.726294394131088,
    "end_station_id": "440",
    "end_station_name": "Lakkegata",
    "end_station_description": "ved Sundtkvartalet",
    "end_station_latitude": 59.9172088,
    "end_station_longitude": 10.7622135
  },
  {
    "started_at": "2024-06-02 06:45:06.769000+00:00",
    "ended_at": "2024-06-02 06:49:56.858000+00:00",
    "duration": 290,
    "start_station_id": "2305",
    "start_station_name": "Hesselbergs Gate",
    "start_station_description": "ved Toftes Gate",
    "start_station_latitude": 59.927777943193746,
    "start_station_longitude": 10.761256419316368,
    "end_station_id": "440",
    "end_station_name": "Lakkegata",
    "end_station_description": "ved Sundtkvartalet",
    "end_station_latitude": 59.9172088,
    "end_station_longitude": 10.7622135
  },
  {
    "started_at": "2024-06-02 06:45:08.892000+00:00",
    "ended_at": "2024-06-02 06:46:31.992000+00:00",
    "duration": 83,
    "start_station_id": "487",
    "start_station_name": "Carl Berners plass nord",
    "start_station_description": "ved Hasleveien",
    "start_station_latitude": 59.926929,
    "start_station_longitude": 10.776971,
    "end_station_id": "406",
    "end_station_name": "Carl Berners plass sør",
    "end_station_description": "langs Finnmarkgata",
    "end_station_latitude": 59.92507,
    "end_station_longitude": 10.775996
  },
  {
    "started_at": "2024-06-02 06:45:51.316000+00:00",
    "ended_at": "2024-06-02 06:50:27.947000+00:00",
    "duration": 276,
    "start_station_id": "464",
    "start_station_name": "Sukkerbiten",
    "start_station_description": "ved gangbroen",
    "start_station_latitude": 59.905124380703484,
    "start_station_longitude": 10.753763553726515,
    "end_station_id": "577",
    "end_station_name": "Arkaden Nord",
    "end_station_description": "langs Dronningens gate",
    "end_station_latitude": 59.9121472,
    "end_station_longitude": 10.7480527
  },
  {
    "started_at": "2024-06-02 06:47:53.944000+00:00",
    "ended_at": "2024-06-02 06:49:08.187000+00:00",
    "duration": 74,
    "start_station_id": "463",
    "start_station_name": "Schous plass trikkestopp",
    "start_station_description": "ved biblioteket",
    "start_station_latitude": 59.9207284,
    "start_station_longitude": 10.7594857,
    "end_station_id": "463",
    "end_station_name": "Schous plass trikkestopp",
    "end_station_description": "ved biblioteket",
    "end_station_latitude": 59.9207284,
    "end_station_longitude": 10.7594857
  },
  {
    "started_at": "2024-06-02 06:48:04.992000+00:00",
    "ended_at": "2024-06-02 06:53:07.091000+00:00",
    "duration": 302,
    "start_station_id": "446",
    "start_station_name": "Bislett Stadion",
    "start_station_description": "ved rundkjøringen",
    "start_station_latitude": 59.925471317049954,
    "start_station_longitude": 10.73121932213806,
    "end_station_id": "459",
    "end_station_name": "Valkyrieplassen",
    "end_station_description": "ved Bogstadveien",
    "end_station_latitude": 59.9281319,
    "end_station_longitude": 10.71842
  },
  {
    "started_at": "2024-06-02 06:48:31.529000+00:00",
    "ended_at": "2024-06-02 06:51:28.044000+00:00",
    "duration": 176,
    "start_station_id": "505",
    "start_station_name": "Marienlystparken",
    "start_station_description": "langs Kirkeveien",
    "start_station_latitude": 59.93215,
    "start_station_longitude": 10.723478,
    "end_station_id": "556",
    "end_station_name": "Pilestredet",
    "end_station_description": "ved Sporveisgata",
    "end_station_latitude": 59.9262242,
    "end_station_longitude": 10.7296246
  },
  {
    "started_at": "2024-06-02 06:49:11.973000+00:00",
    "ended_at": "2024-06-02 07:00:03.091000+00:00",
    "duration": 651,
    "start_station_id": "463",
    "start_station_name": "Schous plass trikkestopp",
    "start_station_description": "ved biblioteket",
    "start_station_latitude": 59.9207284,
    "start_station_longitude": 10.7594857,
    "end_station_id": "534",
    "end_station_name": "Filipstadveien",
    "end_station_description": "langs busslommen",
    "end_station_latitude": 59.9102277,
    "end_station_longitude": 10.7208788
  },
  {
    "started_at": "2024-06-02 06:49:19.067000+00:00",
    "ended_at": "2024-06-02 07:06:04.156000+00:00",
    "duration": 1005,
    "start_station_id": "600",
    "start_station_name": "Dyvekes bru",
    "start_station_description": "ved skatepark",
    "start_station_latitude": 59.905323,
    "start_station_longitude": 10.7689579,
    "end_station_id": "587",
    "end_station_name": "Riddervoldplass",
    "end_station_description": "ved Camilla Colletts vei",
    "end_station_latitude": 59.9191421,
    "end_station_longitude": 10.7196414
  },
  {
    "started_at": "2024-06-02 06:50:38.191000+00:00",
    "ended_at": "2024-06-02 06:56:26.342000+00:00",
    "duration": 348,
    "start_station_id": "610",
    "start_station_name": "Sotahjørnet",
    "start_station_description": "ved Strømsveien",
    "start_station_latitude": 59.9099822,
    "start_station_longitude": 10.7914482,
    "end_station_id": "612",
    "end_station_name": "Ensjøveien",
    "end_station_description": "ved turvei",
    "end_station_latitude": 59.91662195885618,
    "end_station_longitude": 10.783309055819714
  },
  {
    "started_at": "2024-06-02 06:52:27.852000+00:00",
    "ended_at": "2024-06-02 06:58:47.521000+00:00",
    "duration": 379,
    "start_station_id": "448",
    "start_station_name": "Oslo Plaza",
    "start_station_description": "ved rundkjøringen",
    "start_station_latitude": 59.91218291295141,
    "start_station_longitude": 10.7544337247013,
    "end_station_id": "507",
    "end_station_name": "Jens Bjelkes Gate",
    "end_station_description": "ved Trondheimsveien",
    "end_station_latitude": 59.91914743024347,
    "end_station_longitude": 10.76412958416006
  },
  {
    "started_at": "2024-06-02 06:52:40.066000+00:00",
    "ended_at": "2024-06-02 07:09:34.125000+00:00",
    "duration": 1014,
    "start_station_id": "2280",
    "start_station_name": "Klingenberggata",
    "start_station_description": "By Olav V street",
    "start_station_latitude": 59.913150534075015,
    "start_station_longitude": 10.732281291700133,
    "end_station_id": "418",
    "end_station_name": "Norsk Folkemuseum",
    "end_station_description": "utenfor inngangen",
    "end_station_latitude": 59.907674,
    "end_station_longitude": 10.686843
  },
  {
    "started_at": "2024-06-02 06:53:20.474000+00:00",
    "ended_at": "2024-06-02 07:42:44.416000+00:00",
    "duration": 2963,
    "start_station_id": "507",
    "start_station_name": "Jens Bjelkes Gate",
    "start_station_description": "ved Trondheimsveien",
    "start_station_latitude": 59.91914743024347,
    "start_station_longitude": 10.76412958416006,
    "end_station_id": "396",
    "end_station_name": "Kirkeristen",
    "end_station_description": "ved Torggata",
    "end_station_latitude": 59.91300035973293,
    "end_station_longitude": 10.746760585982287
  },
  {
    "started_at": "2024-06-02 06:54:24.214000+00:00",
    "ended_at": "2024-06-02 07:01:51.056000+00:00",
    "duration": 446,
    "start_station_id": "422",
    "start_station_name": "St. Hanshaugen",
    "start_station_description": "langs Waldemar Thranes gate",
    "start_station_latitude": 59.923703,
    "start_station_longitude": 10.740542,
    "end_station_id": "787",
    "end_station_name": "Kirkegata 15",
    "end_station_description": "ved Kunnskapsdepartamentet",
    "end_station_latitude": 59.91015615055511,
    "end_station_longitude": 10.743456971511705
  },
  {
    "started_at": "2024-06-02 06:54:52.587000+00:00",
    "ended_at": "2024-06-02 06:56:03.507000+00:00",
    "duration": 70,
    "start_station_id": "507",
    "start_station_name": "Jens Bjelkes Gate",
    "start_station_description": "ved Trondheimsveien",
    "start_station_latitude": 59.91914743024347,
    "start_station_longitude": 10.76412958416006,
    "end_station_id": "507",
    "end_station_name": "Jens Bjelkes Gate",
    "end_station_description": "ved Trondheimsveien",
    "end_station_latitude": 59.91914743024347,
    "end_station_longitude": 10.76412958416006
  },
  {
    "started_at": "2024-06-02 06:55:58.394000+00:00",
    "ended_at": "2024-06-02 07:00:52.748000+00:00",
    "duration": 294,
    "start_station_id": "2340",
    "start_station_name": "Tiedemannsparken",
    "start_station_description": "langs Grenseveien ved fotgjengerbru",
    "start_station_latitude": 59.92024767905539,
    "start_station_longitude": 10.793540704010042,
    "end_station_id": "512",
    "end_station_name": "Ensjø T-bane",
    "end_station_description": "langs Ensjøveien",
    "end_station_latitude": 59.9131891,
    "end_station_longitude": 10.7897605
  },
  {
    "started_at": "2024-06-02 06:56:23.575000+00:00",
    "ended_at": "2024-06-02 07:42:27.262000+00:00",
    "duration": 2763,
    "start_station_id": "507",
    "start_station_name": "Jens Bjelkes Gate",
    "start_station_description": "ved Trondheimsveien",
    "start_station_latitude": 59.91914743024347,
    "start_station_longitude": 10.76412958416006,
    "end_station_id": "396",
    "end_station_name": "Kirkeristen",
    "end_station_description": "ved Torggata",
    "end_station_latitude": 59.91300035973293,
    "end_station_longitude": 10.746760585982287
  },
  {
    "started_at": "2024-06-02 06:56:33.281000+00:00",
    "ended_at": "2024-06-02 06:59:24.724000+00:00",
    "duration": 171,
    "start_station_id": "406",
    "start_station_name": "Carl Berners plass sør",
    "start_station_description": "langs Finnmarkgata",
    "start_station_latitude": 59.92507,
    "start_station_longitude": 10.775996,
    "end_station_id": "458",
    "end_station_name": "Jenny Braatens Plass",
    "end_station_description": "langs Rosenhoffgata",
    "end_station_latitude": 59.928349,
    "end_station_longitude": 10.77837
  },
  {
    "started_at": "2024-06-02 06:56:34.295000+00:00",
    "ended_at": "2024-06-02 07:13:45.770000+00:00",
    "duration": 1031,
    "start_station_id": "614",
    "start_station_name": "Sinsen T-bane",
    "start_station_description": "langs Hans Nielsen Hauges gate",
    "start_station_latitude": 59.938863086921295,
    "start_station_longitude": 10.780603250331886,
    "end_station_id": "1755",
    "end_station_name": "Aker Brygge 1 mot Nasjonalmuseet",
    "end_station_description": "bak muren ved plattform G",
    "end_station_latitude": 59.91118372188379,
    "end_station_longitude": 10.730034556850455
  },
  {
    "started_at": "2024-06-02 06:56:38.354000+00:00",
    "ended_at": "2024-06-02 07:02:10.256000+00:00",
    "duration": 331,
    "start_station_id": "555",
    "start_station_name": "Griffenfeldts gate",
    "start_station_description": "ved Colletts gate",
    "start_station_latitude": 59.9337026,
    "start_station_longitude": 10.7519299,
    "end_station_id": "517",
    "end_station_name": "Tåsenløkka",
    "end_station_description": "langs Uelands gate",
    "end_station_latitude": 59.9433939,
    "end_station_longitude": 10.7482848
  },
  {
    "started_at": "2024-06-02 06:57:11.134000+00:00",
    "ended_at": "2024-06-02 07:11:44.891000+00:00",
    "duration": 873,
    "start_station_id": "551",
    "start_station_name": "Olaf Ryes plass",
    "start_station_description": "langs Sofienberggata",
    "start_station_latitude": 59.922425,
    "start_station_longitude": 10.758182,
    "end_station_id": "2329",
    "end_station_name": "Via Vika",
    "end_station_description": "mellom bygningene ved Via Vika",
    "end_station_latitude": 59.91271286014364,
    "end_station_longitude": 10.727170827087008
  },
  {
    "started_at": "2024-06-02 06:57:54.260000+00:00",
    "ended_at": "2024-06-02 07:46:22.393000+00:00",
    "duration": 2908,
    "start_station_id": "487",
    "start_station_name": "Carl Berners plass nord",
    "start_station_description": "ved Hasleveien",
    "start_station_latitude": 59.926929,
    "start_station_longitude": 10.776971,
    "end_station_id": "448",
    "end_station_name": "Oslo Plaza",
    "end_station_description": "ved rundkjøringen",
    "end_station_latitude": 59.91218291295141,
    "end_station_longitude": 10.7544337247013
  },
  {
    "started_at": "2024-06-02 06:58:22.347000+00:00",
    "ended_at": "2024-06-02 07:10:40.122000+00:00",
    "duration": 737,
    "start_station_id": "607",
    "start_station_name": "Marcus Thranes gate",
    "start_station_description": "ved Akerselva",
    "start_station_latitude": 59.93277225626508,
    "start_station_longitude": 10.758594919923468,
    "end_station_id": "413",
    "end_station_name": "Majorstuen",
    "end_station_description": "på Vinkelplassen",
    "end_station_latitude": 59.929045,
    "end_station_longitude": 10.716926
  },
  {
    "started_at": "2024-06-02 06:58:26.608000+00:00",
    "ended_at": "2024-06-02 07:00:55.716000+00:00",
    "duration": 149,
    "start_station_id": "562",
    "start_station_name": "Slottsparken Øst",
    "start_station_description": "ved Nordraaks plass",
    "start_station_latitude": 59.917485,
    "start_station_longitude": 10.732128,
    "end_station_id": "1023",
    "end_station_name": "Professor Aschehougs plass",
    "end_station_description": "ved Kristian IVs gate",
    "end_station_latitude": 59.9147672,
    "end_station_longitude": 10.740971
  },
  {
    "started_at": "2024-06-02 06:58:50.186000+00:00",
    "ended_at": "2024-06-02 07:02:59.409000+00:00",
    "duration": 249,
    "start_station_id": "601",
    "start_station_name": "Rolf Wickstrøms vei",
    "start_station_description": "ved Bergrådveien",
    "start_station_latitude": 59.9534114,
    "start_station_longitude": 10.7577241,
    "end_station_id": "592",
    "end_station_name": "Badebakken",
    "end_station_description": "langs Maridalsveien",
    "end_station_latitude": 59.94558091179507,
    "end_station_longitude": 10.760323881579982
  },
  {
    "started_at": "2024-06-02 06:59:40.096000+00:00",
    "ended_at": "2024-06-02 07:06:48.687000+00:00",
    "duration": 428,
    "start_station_id": "408",
    "start_station_name": "Tøyen skole",
    "start_station_description": "forsiden av skolebygget",
    "start_station_latitude": 59.914943,
    "start_station_longitude": 10.773977,
    "end_station_id": "487",
    "end_station_name": "Carl Berners plass nord",
    "end_station_description": "ved Hasleveien",
    "end_station_latitude": 59.926929,
    "end_station_longitude": 10.776971
  },
  {
    "started_at": "2024-06-02 07:00:00.076000+00:00",
    "ended_at": "2024-06-02 07:09:11.754000+00:00",
    "duration": 551,
    "start_station_id": "735",
    "start_station_name": "Oslo Hospital",
    "start_station_description": "ved trikkestoppet",
    "start_station_latitude": 59.90321254732584,
    "start_station_longitude": 10.7673442932541,
    "end_station_id": "408",
    "end_station_name": "Tøyen skole",
    "end_station_description": "forsiden av skolebygget",
    "end_station_latitude": 59.914943,
    "end_station_longitude": 10.773977
  },
  {
    "started_at": "2024-06-02 07:01:57.762000+00:00",
    "ended_at": "2024-06-02 07:22:39.202000+00:00",
    "duration": 1241,
    "start_station_id": "453",
    "start_station_name": "Frogner Stadion",
    "start_station_description": "ved hovedinngangen",
    "start_station_latitude": 59.92753764682686,
    "start_station_longitude": 10.710262803261259,
    "end_station_id": "2347",
    "end_station_name": "Huk 2",
    "end_station_description": "stativ nærmest stranden (markert 2)",
    "end_station_latitude": 59.89843428245928,
    "end_station_longitude": 10.674398461025874
  },
  {
    "started_at": "2024-06-02 07:02:43.307000+00:00",
    "ended_at": "2024-06-02 07:11:02.924000+00:00",
    "duration": 499,
    "start_station_id": "551",
    "start_station_name": "Olaf Ryes plass",
    "start_station_description": "langs Sofienberggata",
    "start_station_latitude": 59.922425,
    "start_station_longitude": 10.758182,
    "end_station_id": "528",
    "end_station_name": "Nedre Slottsgate",
    "end_station_description": "ved Grensen",
    "end_station_latitude": 59.913245,
    "end_station_longitude": 10.743669
  },
  {
    "started_at": "2024-06-02 07:02:59.566000+00:00",
    "ended_at": "2024-06-02 07:06:28.431000+00:00",
    "duration": 208,
    "start_station_id": "478",
    "start_station_name": "Jernbanetorget",
    "start_station_description": "Europarådets plass",
    "start_station_latitude": 59.911901,
    "start_station_longitude": 10.749929,
    "end_station_id": "464",
    "end_station_name": "Sukkerbiten",
    "end_station_description": "ved gangbroen",
    "end_station_latitude": 59.905124380703484,
    "end_station_longitude": 10.753763553726515
  },
  {
    "started_at": "2024-06-02 07:03:00.731000+00:00",
    "ended_at": "2024-06-02 07:13:27.653000+00:00",
    "duration": 626,
    "start_station_id": "422",
    "start_station_name": "St. Hanshaugen",
    "start_station_description": "langs Waldemar Thranes gate",
    "start_station_latitude": 59.923703,
    "start_station_longitude": 10.740542,
    "end_station_id": "609",
    "end_station_name": "Fred Olsens gate",
    "end_station_description": "ved Karl Johans gate",
    "end_station_latitude": 59.9110506,
    "end_station_longitude": 10.7493737
  },
  {
    "started_at": "2024-06-02 07:03:26.977000+00:00",
    "ended_at": "2024-06-02 07:13:15.624000+00:00",
    "duration": 588,
    "start_station_id": "422",
    "start_station_name": "St. Hanshaugen",
    "start_station_description": "langs Waldemar Thranes gate",
    "start_station_latitude": 59.923703,
    "start_station_longitude": 10.740542,
    "end_station_id": "609",
    "end_station_name": "Fred Olsens gate",
    "end_station_description": "ved Karl Johans gate",
    "end_station_latitude": 59.9110506,
    "end_station_longitude": 10.7493737
  },
  {
    "started_at": "2024-06-02 07:04:52.775000+00:00",
    "ended_at": "2024-06-02 07:51:19.598000+00:00",
    "duration": 2786,
    "start_station_id": "444",
    "start_station_name": "AHO",
    "start_station_description": "langs Maridalsveien",
    "start_station_latitude": 59.925265,
    "start_station_longitude": 10.750462,
    "end_station_id": "2347",
    "end_station_name": "Huk 2",
    "end_station_description": "stativ nærmest stranden (markert 2)",
    "end_station_latitude": 59.89843428245928,
    "end_station_longitude": 10.674398461025874
  },
  {
    "started_at": "2024-06-02 07:05:39.595000+00:00",
    "ended_at": "2024-06-02 07:13:37.917000+00:00",
    "duration": 478,
    "start_station_id": "543",
    "start_station_name": "Fyrstikktorget",
    "start_station_description": "ved Karoline Kristiansens vei",
    "start_station_latitude": 59.91381587564694,
    "start_station_longitude": 10.798093360118871,
    "end_station_id": "506",
    "end_station_name": "Botanisk Hage vest",
    "end_station_description": "ved Blytts gate",
    "end_station_latitude": 59.92012811804052,
    "end_station_longitude": 10.768875408563598
  },
  {
    "started_at": "2024-06-02 07:06:39.785000+00:00",
    "ended_at": "2024-06-02 07:07:58.251000+00:00",
    "duration": 78,
    "start_station_id": "605",
    "start_station_name": "Økernveien",
    "start_station_description": "ved Ensjøveien bussholdeplass",
    "start_station_latitude": 59.917023632719406,
    "start_station_longitude": 10.779880090762617,
    "end_station_id": "377",
    "end_station_name": "Tøyenparken",
    "end_station_description": "ved Caltexløkka",
    "end_station_latitude": 59.915667,
    "end_station_longitude": 10.7775665
  },
  {
    "started_at": "2024-06-02 07:07:57.303000+00:00",
    "ended_at": "2024-06-02 07:46:13.921000+00:00",
    "duration": 2296,
    "start_station_id": "480",
    "start_station_name": "Helga Helgesens plass",
    "start_station_description": "langs Grønlandsleiret",
    "start_station_latitude": 59.9121109,
    "start_station_longitude": 10.7661939,
    "end_station_id": "551",
    "end_station_name": "Olaf Ryes plass",
    "end_station_description": "langs Sofienberggata",
    "end_station_latitude": 59.922425,
    "end_station_longitude": 10.758182
  },
  {
    "started_at": "2024-06-02 07:08:22.028000+00:00",
    "ended_at": "2024-06-02 07:23:10.164000+00:00",
    "duration": 888,
    "start_station_id": "479",
    "start_station_name": "Tjuvholmen",
    "start_station_description": "ved Bryggegangen",
    "start_station_latitude": 59.909467,
    "start_station_longitude": 10.722509,
    "end_station_id": "418",
    "end_station_name": "Norsk Folkemuseum",
    "end_station_description": "utenfor inngangen",
    "end_station_latitude": 59.907674,
    "end_station_longitude": 10.686843
  },
  {
    "started_at": "2024-06-02 07:08:38.316000+00:00",
    "ended_at": "2024-06-02 07:18:40.073000+00:00",
    "duration": 601,
    "start_station_id": "735",
    "start_station_name": "Oslo Hospital",
    "start_station_description": "ved trikkestoppet",
    "start_station_latitude": 59.90321254732584,
    "start_station_longitude": 10.7673442932541,
    "end_station_id": "500",
    "end_station_name": "Anker Hotel",
    "end_station_description": "langs Storgata",
    "end_station_latitude": 59.9172794,
    "end_station_longitude": 10.7581553
  },
  {
    "started_at": "2024-06-02 07:08:56.448000+00:00",
    "ended_at": "2024-06-02 07:13:59.136000+00:00",
    "duration": 302,
    "start_station_id": "486",
    "start_station_name": "Blindern Studenthus",
    "start_station_description": "langs Blindernveien",
    "start_station_latitude": 59.93522040770026,
    "start_station_longitude": 10.726476622250004,
    "end_station_id": "474",
    "end_station_name": "Blindern studentparkering",
    "end_station_description": "rett ved Blindern Studenterhjem",
    "end_station_latitude": 59.940873733543725,
    "end_station_longitude": 10.720778851520523
  },
  {
    "started_at": "2024-06-02 07:09:23.481000+00:00",
    "ended_at": "2024-06-02 09:15:42.638000+00:00",
    "duration": 7579,
    "start_station_id": "495",
    "start_station_name": "Vaterlandsparken",
    "start_station_description": "langs Brugata",
    "start_station_latitude": 59.91351552854147,
    "start_station_longitude": 10.757334670552268,
    "end_station_id": "414",
    "end_station_name": "Kontraskjæret",
    "end_station_description": "ved Christiania Torv",
    "end_station_latitude": 59.910242,
    "end_station_longitude": 10.73857
  },
  {
    "started_at": "2024-06-02 07:10:35.476000+00:00",
    "ended_at": "2024-06-02 07:17:16.467000+00:00",
    "duration": 400,
    "start_station_id": "598",
    "start_station_name": "Sofienbergparken nord",
    "start_station_description": "langs Helgesens gate",
    "start_station_latitude": 59.923229,
    "start_station_longitude": 10.766171,
    "end_station_id": "523",
    "end_station_name": "Tøyenbekken",
    "end_station_description": "ved Rubina Ranas gate",
    "end_station_latitude": 59.9115945,
    "end_station_longitude": 10.7617736
  },
  {
    "started_at": "2024-06-02 07:10:41.762000+00:00",
    "ended_at": "2024-06-02 07:14:52.419000+00:00",
    "duration": 250,
    "start_station_id": "427",
    "start_station_name": "Briskeby",
    "start_station_description": "ved Uranienborg skole",
    "start_station_latitude": 59.920218,
    "start_station_longitude": 10.717978,
    "end_station_id": "558",
    "end_station_name": "Dokkveien",
    "end_station_description": "ved Støperigata",
    "end_station_latitude": 59.910974,
    "end_station_longitude": 10.7277001
  },
  {
    "started_at": "2024-06-02 07:12:42.879000+00:00",
    "ended_at": "2024-06-02 07:21:17.209000+00:00",
    "duration": 514,
    "start_station_id": "410",
    "start_station_name": "Landstads gate",
    "start_station_description": "langs Uelands gate",
    "start_station_latitude": 59.929005,
    "start_station_longitude": 10.7496755,
    "end_station_id": "396",
    "end_station_name": "Kirkeristen",
    "end_station_description": "ved Torggata",
    "end_station_latitude": 59.91300035973293,
    "end_station_longitude": 10.746760585982287
  },
  {
    "started_at": "2024-06-02 07:13:01.612000+00:00",
    "ended_at": "2024-06-02 07:45:58.829000+00:00",
    "duration": 1977,
    "start_station_id": "582",
    "start_station_name": "Stavangergata",
    "start_station_description": "ved Uelands gate",
    "start_station_latitude": 59.94114763297182,
    "start_station_longitude": 10.750775120272449,
    "end_station_id": "2357",
    "end_station_name": "Aker Brygge 2 mot Rådhusplassen",
    "end_station_description": "ved plattform H i retning rådhuset",
    "end_station_latitude": 59.91111544486938,
    "end_station_longitude": 10.730396895054923
  },
  {
    "started_at": "2024-06-02 07:13:09.008000+00:00",
    "ended_at": "2024-06-02 07:21:23.105000+00:00",
    "duration": 494,
    "start_station_id": "410",
    "start_station_name": "Landstads gate",
    "start_station_description": "langs Uelands gate",
    "start_station_latitude": 59.929005,
    "start_station_longitude": 10.7496755,
    "end_station_id": "396",
    "end_station_name": "Kirkeristen",
    "end_station_description": "ved Torggata",
    "end_station_latitude": 59.91300035973293,
    "end_station_longitude": 10.746760585982287
  },
  {
    "started_at": "2024-06-02 07:13:24.332000+00:00",
    "ended_at": "2024-06-02 07:18:46.514000+00:00",
    "duration": 322,
    "start_station_id": "384",
    "start_station_name": "Vår Frelsers gravlund",
    "start_station_description": "langs Ullevålsveien",
    "start_station_latitude": 59.91944043984847,
    "start_station_longitude": 10.7437646218726,
    "end_station_id": "2357",
    "end_station_name": "Aker Brygge 2 mot Rådhusplassen",
    "end_station_description": "ved plattform H i retning rådhuset",
    "end_station_latitude": 59.91111544486938,
    "end_station_longitude": 10.730396895054923
  },
  {
    "started_at": "2024-06-02 07:13:33.482000+00:00",
    "ended_at": "2024-06-02 07:20:19.501000+00:00",
    "duration": 406,
    "start_station_id": "554",
    "start_station_name": "Tåsen Senter",
    "start_station_description": "ved Rolf Wickstrøms vei",
    "start_station_latitude": 59.952659,
    "start_station_longitude": 10.751165,
    "end_station_id": "517",
    "end_station_name": "Tåsenløkka",
    "end_station_description": "langs Uelands gate",
    "end_station_latitude": 59.9433939,
    "end_station_longitude": 10.7482848
  },
  {
    "started_at": "2024-06-02 07:13:47.190000+00:00",
    "ended_at": "2024-06-02 07:21:56.995000+00:00",
    "duration": 489,
    "start_station_id": "478",
    "start_station_name": "Jernbanetorget",
    "start_station_description": "Europarådets plass",
    "start_station_latitude": 59.911901,
    "start_station_longitude": 10.749929,
    "end_station_id": "551",
    "end_station_name": "Olaf Ryes plass",
    "end_station_description": "langs Sofienberggata",
    "end_station_latitude": 59.922425,
    "end_station_longitude": 10.758182
  },
  {
    "started_at": "2024-06-02 07:13:52.018000+00:00",
    "ended_at": "2024-06-02 07:23:01.353000+00:00",
    "duration": 549,
    "start_station_id": "460",
    "start_station_name": "Botanisk Hage sør",
    "start_station_description": "langs Jens Bjelkes gate",
    "start_station_latitude": 59.915417698024385,
    "start_station_longitude": 10.76933022142641,
    "end_station_id": "521",
    "end_station_name": "Jess Carlsens gate",
    "end_station_description": "ved Hausmanns gate",
    "end_station_latitude": 59.9186359,
    "end_station_longitude": 10.7523939
  },
  {
    "started_at": "2024-06-02 07:14:15.256000+00:00",
    "ended_at": "2024-06-02 07:23:11.874000+00:00",
    "duration": 536,
    "start_station_id": "460",
    "start_station_name": "Botanisk Hage sør",
    "start_station_description": "langs Jens Bjelkes gate",
    "start_station_latitude": 59.915417698024385,
    "start_station_longitude": 10.76933022142641,
    "end_station_id": "521",
    "end_station_name": "Jess Carlsens gate",
    "end_station_description": "ved Hausmanns gate",
    "end_station_latitude": 59.9186359,
    "end_station_longitude": 10.7523939
  },
  {
    "started_at": "2024-06-02 07:14:21.600000+00:00",
    "ended_at": "2024-06-02 07:21:06.753000+00:00",
    "duration": 405,
    "start_station_id": "582",
    "start_station_name": "Stavangergata",
    "start_station_description": "ved Uelands gate",
    "start_station_latitude": 59.94114763297182,
    "start_station_longitude": 10.750775120272449,
    "end_station_id": "444",
    "end_station_name": "AHO",
    "end_station_description": "langs Maridalsveien",
    "end_station_latitude": 59.925265,
    "end_station_longitude": 10.750462
  },
  {
    "started_at": "2024-06-02 07:15:17.242000+00:00",
    "ended_at": "2024-06-02 07:27:38.147000+00:00",
    "duration": 740,
    "start_station_id": "505",
    "start_station_name": "Marienlystparken",
    "start_station_description": "langs Kirkeveien",
    "start_station_latitude": 59.93215,
    "start_station_longitude": 10.723478,
    "end_station_id": "414",
    "end_station_name": "Kontraskjæret",
    "end_station_description": "ved Christiania Torv",
    "end_station_latitude": 59.910242,
    "end_station_longitude": 10.73857
  },
  {
    "started_at": "2024-06-02 07:15:19.097000+00:00",
    "ended_at": "2024-06-02 07:39:17.281000+00:00",
    "duration": 1438,
    "start_station_id": "537",
    "start_station_name": "St. Olavs gate",
    "start_station_description": "ved Pilestredet",
    "start_station_latitude": 59.9179676629428,
    "start_station_longitude": 10.738628884264756,
    "end_station_id": "450",
    "end_station_name": "Elisenberg",
    "end_station_description": "ved holdeplassen",
    "end_station_latitude": 59.919524,
    "end_station_longitude": 10.70884
  },
  {
    "started_at": "2024-06-02 07:15:54.944000+00:00",
    "ended_at": "2024-06-02 07:21:57.223000+00:00",
    "duration": 362,
    "start_station_id": "443",
    "start_station_name": "Sjøsiden 1 ved trappen",
    "start_station_description": "to rader nærmest trappen",
    "start_station_latitude": 59.91014291324254,
    "start_station_longitude": 10.752003700187942,
    "end_station_id": "464",
    "end_station_name": "Sukkerbiten",
    "end_station_description": "ved gangbroen",
    "end_station_latitude": 59.905124380703484,
    "end_station_longitude": 10.753763553726515
  },
  {
    "started_at": "2024-06-02 07:16:08.326000+00:00",
    "ended_at": "2024-06-02 07:39:35.958000+00:00",
    "duration": 1407,
    "start_station_id": "537",
    "start_station_name": "St. Olavs gate",
    "start_station_description": "ved Pilestredet",
    "start_station_latitude": 59.9179676629428,
    "start_station_longitude": 10.738628884264756,
    "end_station_id": "450",
    "end_station_name": "Elisenberg",
    "end_station_description": "ved holdeplassen",
    "end_station_latitude": 59.919524,
    "end_station_longitude": 10.70884
  },
  {
    "started_at": "2024-06-02 07:16:18.240000+00:00",
    "ended_at": "2024-06-02 07:21:07.790000+00:00",
    "duration": 289,
    "start_station_id": "498",
    "start_station_name": "HasleLinje",
    "start_station_description": "ved Anders Winsvolds vei",
    "start_station_latitude": 59.92763407981436,
    "start_station_longitude": 10.799249379762283,
    "end_station_id": "498",
    "end_station_name": "HasleLinje",
    "end_station_description": "ved Anders Winsvolds vei",
    "end_station_latitude": 59.92763407981436,
    "end_station_longitude": 10.799249379762283
  },
  {
    "started_at": "2024-06-02 07:17:36.728000+00:00",
    "ended_at": "2024-06-02 07:21:08.478000+00:00",
    "duration": 211,
    "start_station_id": "443",
    "start_station_name": "Sjøsiden 1 ved trappen",
    "start_station_description": "to rader nærmest trappen",
    "start_station_latitude": 59.91014291324254,
    "start_station_longitude": 10.752003700187942,
    "end_station_id": "441",
    "end_station_name": "Vippetangen øst",
    "end_station_description": "nærmest Operaen",
    "end_station_latitude": 59.903989,
    "end_station_longitude": 10.741077
  },
  {
    "started_at": "2024-06-02 07:18:01.894000+00:00",
    "ended_at": "2024-06-02 07:24:05.696000+00:00",
    "duration": 363,
    "start_station_id": "556",
    "start_station_name": "Pilestredet",
    "start_station_description": "ved Sporveisgata",
    "start_station_latitude": 59.9262242,
    "start_station_longitude": 10.7296246,
    "end_station_id": "548",
    "end_station_name": "Colbjørnsens gate",
    "end_station_description": "ved Skovveien",
    "end_station_latitude": 59.91731888534716,
    "end_station_longitude": 10.716909039918278
  },
  {
    "started_at": "2024-06-02 07:18:39.813000+00:00",
    "ended_at": "2024-06-02 07:24:01.642000+00:00",
    "duration": 321,
    "start_station_id": "587",
    "start_station_name": "Riddervoldplass",
    "start_station_description": "ved Camilla Colletts vei",
    "start_station_latitude": 59.9191421,
    "start_station_longitude": 10.7196414,
    "end_station_id": "453",
    "end_station_name": "Frogner Stadion",
    "end_station_description": "ved hovedinngangen",
    "end_station_latitude": 59.92753764682686,
    "end_station_longitude": 10.710262803261259
  },
  {
    "started_at": "2024-06-02 07:19:31.572000+00:00",
    "ended_at": "2024-06-02 07:31:33.185000+00:00",
    "duration": 721,
    "start_station_id": "744",
    "start_station_name": "Hallénparken",
    "start_station_description": "ved Vogts gate",
    "start_station_latitude": 59.9315302,
    "start_station_longitude": 10.762169,
    "end_station_id": "521",
    "end_station_name": "Jess Carlsens gate",
    "end_station_description": "ved Hausmanns gate",
    "end_station_latitude": 59.9186359,
    "end_station_longitude": 10.7523939
  },
  {
    "started_at": "2024-06-02 07:20:00.215000+00:00",
    "ended_at": "2024-06-02 07:26:41.437000+00:00",
    "duration": 401,
    "start_station_id": "610",
    "start_station_name": "Sotahjørnet",
    "start_station_description": "ved Strømsveien",
    "start_station_latitude": 59.9099822,
    "start_station_longitude": 10.7914482,
    "end_station_id": "408",
    "end_station_name": "Tøyen skole",
    "end_station_description": "forsiden av skolebygget",
    "end_station_latitude": 59.914943,
    "end_station_longitude": 10.773977
  },
  {
    "started_at": "2024-06-02 07:20:48.017000+00:00",
    "ended_at": "2024-06-02 07:27:18.166000+00:00",
    "duration": 390,
    "start_station_id": "390",
    "start_station_name": "Saga Kino",
    "start_station_description": "langs Olav Vs gate",
    "start_station_latitude": 59.91424026794647,
    "start_station_longitude": 10.732771354719745,
    "end_station_id": "456",
    "end_station_name": "Frognerstranda",
    "end_station_description": "ved Kongen Marina",
    "end_station_latitude": 59.9103558,
    "end_station_longitude": 10.7051061
  },
  {
    "started_at": "2024-06-02 07:20:54.599000+00:00",
    "ended_at": "2024-06-02 07:36:23.035000+00:00",
    "duration": 928,
    "start_station_id": "464",
    "start_station_name": "Sukkerbiten",
    "start_station_description": "ved gangbroen",
    "start_station_latitude": 59.905124380703484,
    "start_station_longitude": 10.753763553726515,
    "end_station_id": "2357",
    "end_station_name": "Aker Brygge 2 mot Rådhusplassen",
    "end_station_description": "ved plattform H i retning rådhuset",
    "end_station_latitude": 59.91111544486938,
    "end_station_longitude": 10.730396895054923
  },
  {
    "started_at": "2024-06-02 07:21:05.640000+00:00",
    "ended_at": "2024-06-02 07:28:39.334000+00:00",
    "duration": 453,
    "start_station_id": "433",
    "start_station_name": "Ila",
    "start_station_description": "langs Uelandsgt ved Colletts",
    "start_station_latitude": 59.931828,
    "start_station_longitude": 10.748745,
    "end_station_id": "537",
    "end_station_name": "St. Olavs gate",
    "end_station_description": "ved Pilestredet",
    "end_station_latitude": 59.9179676629428,
    "end_station_longitude": 10.738628884264756
  },
  {
    "started_at": "2024-06-02 07:21:21.528000+00:00",
    "ended_at": "2024-06-02 07:36:49.857000+00:00",
    "duration": 928,
    "start_station_id": "498",
    "start_station_name": "HasleLinje",
    "start_station_description": "ved Anders Winsvolds vei",
    "start_station_latitude": 59.92763407981436,
    "start_station_longitude": 10.799249379762283,
    "end_station_id": "2328",
    "end_station_name": "The Hub",
    "end_station_description": "Mellom Oslo City og The Hub hotel",
    "end_station_latitude": 59.912522370233745,
    "end_station_longitude": 10.750910185807754
  },
  {
    "started_at": "2024-06-02 07:21:42.418000+00:00",
    "ended_at": "2024-06-02 07:25:10.227000+00:00",
    "duration": 207,
    "start_station_id": "551",
    "start_station_name": "Olaf Ryes plass",
    "start_station_description": "langs Sofienberggata",
    "start_station_latitude": 59.922425,
    "start_station_longitude": 10.758182,
    "end_station_id": "489",
    "end_station_name": "Torggata",
    "end_station_description": "ved Bernt Ankers gate",
    "end_station_latitude": 59.91598309274519,
    "end_station_longitude": 10.75155119076095
  },
  {
    "started_at": "2024-06-02 07:21:47.917000+00:00",
    "ended_at": "2024-06-02 07:36:20.857000+00:00",
    "duration": 872,
    "start_station_id": "424",
    "start_station_name": "Birkelunden",
    "start_station_description": "langs Seilduksgata",
    "start_station_latitude": 59.9256113,
    "start_station_longitude": 10.760926,
    "end_station_id": "610",
    "end_station_name": "Sotahjørnet",
    "end_station_description": "ved Strømsveien",
    "end_station_latitude": 59.9099822,
    "end_station_longitude": 10.7914482
  },
  {
    "started_at": "2024-06-02 07:22:08.116000+00:00",
    "ended_at": "2024-06-02 07:24:30.971000+00:00",
    "duration": 142,
    "start_station_id": "440",
    "start_station_name": "Lakkegata",
    "start_station_description": "ved Sundtkvartalet",
    "start_station_latitude": 59.9172088,
    "start_station_longitude": 10.7622135,
    "end_station_id": "495",
    "end_station_name": "Vaterlandsparken",
    "end_station_description": "langs Brugata",
    "end_station_latitude": 59.91351552854147,
    "end_station_longitude": 10.757334670552268
  },
  {
    "started_at": "2024-06-02 07:22:29.776000+00:00",
    "ended_at": "2024-06-02 07:29:22.596000+00:00",
    "duration": 412,
    "start_station_id": "460",
    "start_station_name": "Botanisk Hage sør",
    "start_station_description": "langs Jens Bjelkes gate",
    "start_station_latitude": 59.915417698024385,
    "start_station_longitude": 10.76933022142641,
    "end_station_id": "576",
    "end_station_name": "Dronningens gate",
    "end_station_description": "sør for Karl Johan",
    "end_station_latitude": 59.911392299457006,
    "end_station_longitude": 10.747281829592453
  },